id,address,at_street,description,latitude,longitude,municipality,name,on_street
"7954",,"Candia Street",,"42.425213","-71.168978","Allston","Washington St @ Candia St","Washington Street"
"7578",,,,"42.383979","-71.210523","Waltham","Beaver St @ Waverley Oaks Rd","Beaver Street"
"2231",,,,"42.362498","-71.085841","Cambridge","Main St @ Kendall Station - Red Line","Main Street"
"1521",,,,"42.33851","-71.107918","Boston","Brookline Ave @ Longwood Ave","Brookline Avenue"
"2329",,"Radcliffe Road",,"42.409","-71.174303","Belmont","East Service Rd @ Radcliffe Rd","Frontage Road"
"node-dwnxg-stair14-lobby",,,"Downtown Crossing - Bottom of stairs between lobby and Washington Street at Summer Street",,,"Boston","Downtown Crossing",
"9187",,"Forest Street",,"42.484184","-71.06779","Wakefield","Main St @ Forest St","Main Street"
"11613",,"Washington Street",,"42.267432","-71.149989","Boston","W Boundary Rd @ Washington St","West Boundary Road"
"17922",,"Park Avenue",,"42.424244","-71.183186","Arlington","Massachusetts Ave @ Park Ave","Massachusetts Avenue"
"8160",,"Homer Street",,"42.335913","-71.207072","Newton","Walnut St @ Homer St","Walnut Street"
"6218",,"Cedar Avenue",,"42.412495","-71.181987","Arlington","Park Ave @ Cedar Ave","Park Avenue"
"8492",,"Meadowbrook Road",,"42.305245","-71.19376","Newton","Dedham St @ Meadowbrook Rd","Dedham Street"
"node-spmnl-ofarepaid",,,"Science Park/West End - Paid side of fare gates","42.36666","-71.067927","Boston","Science Park/West End",
"door-alfcl-alewifes",,,"Alewife - Alewife Path South","42.395753","-71.141256","Cambridge","Alewife - Alewife Path South",
"node-712-platform",,,"Orient Heights - Bottom of Elevator 712","42.386992","-71.004863","Boston","Orient Heights",
"7249",,"Maple Street",,"42.473666","-70.952218","Lynn","Western Ave @ Bayview Ave","Western Avenue"
"8575",,"Bayrd Street",,"42.441169","-71.031296","Malden","Broadway @ Trueman Dr","Broadway"
"5656",,"Lynn Street",,"42.389371","-71.031916","Chelsea","Central Ave @ Lynn St","Central Avenue"
"70159",,,"Boylston - Green Line - Copley & West","42.353214","-71.064545","Boston","Boylston",
"2515",,"Lincoln Street",,"42.371052","-71.09398","Cambridge","Windsor St @ Lincoln St","Windsor Street"
"5251",,"Hewlett Street",,"42.292235","-71.138693","Boston","1467 Centre St opp Hewlett St","Centre Street"
"GB-0296-B2",,,"West Gloucester - Commuter Rail Shuttle - Parking Lot","42.611957","-70.70535","Gloucester","West Gloucester - Parking Lot",
"58",,"Harrison Avenue",,"42.334948","-71.074931","Boston","Massachusetts Ave @ Harrison Ave","Massachusetts Avenue"
"node-sull-nbstairs-lobby",,,"Sullivan Square - Top of stairs for Oak Grove",,,"Boston","Sullivan Square",
"1936",,"Spalding Street",,"42.303741","-71.114635","Boston","South St @ Spalding St","South Street"
"node-wlsta-newpramp-middle",,,"Wollaston - Top of ramp between lobby and Newport Avenue",,,"Quincy","Wollaston",
"4710",,"Tobin Avenue",,"42.437627","-70.970489","Revere","N Shore Rd @ Tobin Ave","North Shore Road"
"door-masta-camden",,,"Massachusetts Avenue - Camden St","42.340379","-71.084763","Boston","Massachusetts Avenue - Camden St",
"3831",,"Southern Artery",,"42.24345","-70.98392","Quincy","South St @ Southern Artery","South Street"
"1816",,"Green Street",,"42.363303","-71.101948","Cambridge","Brookline St @ Green St","Brookline Street"
"18924",,,,"42.406948","-71.25671","Waltham","404 Wyman St","Wyman Street"
"PB-0281-B0",,,"Halifax - Commuter Rail Shuttle - Parking Lot","42.01456","-70.82424","Halifax","Halifax - Parking Lot",
"12439",,"Clary Street",,"42.37378","-71.097963","Cambridge","Prospect St @ Cambridge St","Prospect Street"
"node-384-top",,,"North Station - Top of Escalator 384 from Valenti Way lobby to Valenti Way entrance","42.364682","-71.059652","Boston","North Station",
"15984",,"Marble Street",,"42.47412","-71.100667","Stoneham","Main St @ Summer St","Main Street"
"7854",,"Bridge Street",,"42.365127","-71.204205","Newton","California St @ Bridge St","California Street"
"node-lech-obrienstairs-top",,,"Lechmere - Top of stairs for O'Brien Hwy","42.370861","-71.075629","Cambridge","Lechmere",
"9114",,"Clark Street",,"42.459212","-71.139961","Winchester","757 Main St","Main Street"
"325",,"Dorchester Avenue",,"42.298197","-71.060956","Boston","Park St Busway @ Dorchester Ave","Busway"
"place-ER-0168","252 Bridge St, Salem, MA 01970",,,"42.524792","-70.895876","Salem","Salem",
"node-state-olnbplatformstairssec-nbplatform",,,"State - Bottom of stairs between Oak Grove platform and Wonderland platform, Forest Hills passageway",,,"Boston","State",
"3874",,"Washington Street",,"42.195353","-71.005366","Braintree","Hancock St @ Washington St","Hancock Street"
"7582",,"Lynn Fells Parkway",,"42.471996","-71.035076","Saugus","Main St @ Lynn Fells Pkwy","Main Street"
"135",,"Pond Street",,"42.319947","-71.059926","Boston","Columbia Rd @ Pond St","Columbia Road"
"4046",,"Pictun Road",,"42.179659","-71.029679","Randolph","North St @ Pictun Rd","North Street"
"5923",,"East Street",,"42.458977","-71.048852","Melrose","Upham St @ East St","Upham Street"
"5505",,"Broadway",,"42.392843","-71.068478","Boston","173 Alford St","Alford Street"
"41",,"L Street",,"42.335658","-71.035628","Boston","E Broadway @ L St","East Broadway"
"3321",,"Wilgus Road",,"42.258773","-70.975882","Quincy","Palmer St opp Wilgus Rd","Palmer Street"
"5542",,"Irving Street",,"42.413145","-71.023808","Revere","Park Ave @ Irving St","Park Avenue"
"node-pktrm-ebupassstairs-platform",,,"Park Street - Top of elevator between Government Center & North side platform and passageway to Copley & West",,,"Boston","Park Street",
"3117",,"Holbrook Road",,"42.267541","-71.03649","Quincy","Harvard St @ Holbrook Rd.","Harvard Street"
"place-FB-0275","75 Depot St, Franklin, MA 02038",,,"42.083238","-71.396102","Franklin","Franklin",
"3259",,"Manet Avenue",,"42.267693","-70.956944","Quincy","Sea St @ Manet Ave","Sea Street"
"2752",,"Flint Street",,"42.384718","-71.088713","Somerville","Cross St @ Flint St","Cross Street"
"77",,"Marlborough Street",,"42.34995","-71.089148","Boston","Massachusetts Ave @ Marlborough St","Massachusetts Avenue"
"608",,"West Roxbury Parkway",,"42.275418","-71.140573","Boston","Washington St @ W Roxbury Pkwy","Washington Street"
"ER-0276-S",,,"Ipswich - Commuter Rail - Track 1 (All Trains)","42.676921","-70.840589","Ipswich","Ipswich",
"8212",,"Elliot Street",,"42.312554","-71.221176","Newton","Oak St @ Elliot St","Oak Street"
"node-sstat-411stair-sl",,,"South Station - Bottom of stairs for SL1/SL2/SL3 platform",,,"Boston","South Station",
"node-357-bottom",,,"Alewife - Bottom of Escalator 357 from second floor of garage to fifth floor of garage","42.395816","-71.140942","Cambridge","Alewife",
"1168",,"Townsend Street",,"42.319958","-71.094067","Boston","Washington St @ Townsend St","Washington Street"
"1056",,"Fairmont Street",,"42.362565","-71.112387","Cambridge","River St @ Fairmont St","River Street"
"7632",,"Harvard Street",,"42.352639","-71.202328","Newton","Washington St @ Harvard St","Washington Street"
"6281",,"Stark Avenue",,"42.417758","-71.010387","Revere","Malden St opp Stark Ave","Malden Street"
"7818",,"Woerd Avenue",,"42.361044","-71.245653","Waltham","Rumford Ave @ Woerd Ave","Rumford Avenue"
"6376",,"Metropolitan Avenue",,"42.260492","-71.115601","Boston","River St @ Metropolitan Ave","River Street"
"190",,"State Street",,"42.358789","-71.056733","Boston","Congress St @ State St","Congress Street"
"node-307-platform",,,"Sullivan Square - Bottom of Escalator 307",,,"Boston","Sullivan Square",
"place-NB-0109","Great Plain Ave and Broad Meadow Rd, Needham, MA 02492",,,"42.275648","-71.215528","Needham","Hersey",
"2478",,"Lake Street",,"42.402279","-71.15773","Belmont","Lake St @ Rt 2 East on Ramp","Ramp - Lake Street To Rt 2 Eastbound"
"node-858-lobby",,,"Tufts Medical Center - Top of Elevator 858",,,"Boston","Tufts Medical Center",
"327",,"Parkman Street",,"42.296156","-71.0614","Boston","Dorchester Ave @ Melville Ave","Dorchester Avenue"
"5844",,"Harmony Street",,"42.381875","-71.020555","Boston","Bennington St @ Curtis St","Bennington Street"
"node-haecl-congogplats-passage",,,"Haymarket - Top of stairs between mezzanine and Oak Grove platform",,,"Boston","Haymarket",
"5222",,"Ardale Street",,"42.293246","-71.137342","Boston","Centre St @ Ardale St","Centre Street"
"71618",,"Sumner Street",,"42.256336","-71.162993","Dedham","38 Washington St opp Sumner St","Washington Street"
"9306",,"Prospect Street",,"42.505569","-71.078406","Wakefield","North Ave @ Church St","North Avenue"
"8168",,"Page Road",,"42.353479","-71.208007","Newton","Walnut St @ Page Rd","Walnut Street"
"4349",,"Brandon Road",,"42.262474","-71.089566","Milton","Brook Rd @ Brandon Rd","Brook Road"
"6573",,,,"42.326594","-71.111284","Boston","S Huntington Ave @ VA Hospital","South Huntington Avenue"
"door-north-valentiexitw",,,"North Station - Valenti Way","42.36497","-71.059898","Boston","North Station - Valenti Way",
"node-state-bowdoinramp-nbplatform",,,"State - Bottom of ramp between Bowdoin platform and Oak Grove platform",,,"Boston","State",
"70102",,,"Quincy Center - Red Line - Alewife","42.251809","-71.005409","Quincy","Quincy Center",
"4371",,"Edgehill Road",,"42.251468","-71.055127","Milton","Pleasant St @ Lawrence Rd","Pleasant Street"
"node-knncl-nbsec-farepaid",,,"Kendall/MIT - Paid side of fare gates",,,"Cambridge","Kendall/MIT",
"node-tumnl-wash-fareunpaid",,,"Tufts Medical Center - Unpaid side of fare gates",,,"Boston","Tufts Medical Center",
"18144",,"Elder Road",,"42.303917","-71.235576","Needham","Webster St opp Elder Rd","Webster Street"
"node-436-platform",,,"Arlington - Bottom of westbound escalator",,,"Boston","Arlington",
"525",,"Wellington Hill Street",,"42.28537","-71.093181","Boston","Morton St @ Greendale Rd","Morton Street"
"node-andrw-farepaid",,,"Andrew - Paid side of fare gates",,,"Boston","Andrew",
"NHRML-0152",,,"Wilmington - Commuter Rail","42.546624","-71.174334","Wilmington","Wilmington",
"door-cedgr-fellsway",,,"Cedar Grove - Fellsway St","42.27971","-71.06036","Boston","Cedar Grove - Fellsway St",
"973",,"Market Street",,"42.349206","-71.15404","Boston","Washington St @ Market St","Washington Street"
"node-pktrm-cpwbstairs-rl",,,"Park Street - Bottom of stairs between Red Line center platform and Copley & West platform",,,"Boston","Park Street",
"5760",,"Fenno Street",,"42.406365","-71.014559","Revere","Broadway @ Beach St","Broadway"
"3387",,"Emerson Road",,"42.261736","-71.043101","Milton","Granite Ave opp Emerson Rd","Granite Avenue"
"6836",,"Trinity Avenue",,"42.469101","-70.935401","Lynn","Fayette St @ Trinity Ave","Fayette Street"
"8147",,"Elliot Street",,"42.312557","-71.221019","Newton","Oak St @ Elliot St","Oak Street"
"5230",,,,"42.305854","-71.12422","Boston","Centre St opp Louders Ln","Centre Street"
"3458",,"South Central Avenue",,"42.261898","-71.024802","Quincy","Beale St @ N Central Ave","Beale Street"
"place-conrd",,,,"42.347154","-71.038385","Boston","Silver Line Way",
"node-haecl-busolstair-green",,,"Haymarket - Top of stairs between busway lobby and Orange Line passageway",,,"Boston","Haymarket",
"70233",,,"Dean Road - Green Line - (C) Cleveland Circle","42.337807","-71.141753","Brookline","Dean Road",
"70155",,,"Copley - Green Line - Kenmore & West, (E) Heath Street","42.350126","-71.077376","Boston","Copley",
"2757",,"Brighton Street",,"42.38258","-71.078386","Boston","Cambridge St @ Brighton St","Cambridge Street"
"77244",,"School Street",,"42.3788","-71.246781","Waltham","Hammond St @ Columbus Ave","Hammond Street"
"7450",,"Dearborn Avenue",,"42.458786","-70.977128","Lynn","Summer St @ Dearborn Ave","Summer Street"
"node-923-platform",,,"Aquarium - Bottom of elevator between Bowdoin platform and Atlantic Avenue",,,"Boston","Aquarium",
"1750",,"Walden Street",,"42.326014","-71.104744","Boston","Heath St @ Walden St","Heath Street"
"70096",,,"JFK/UMass - Red Line - Alewife (from Braintree)","42.320434","-71.052215","Boston","JFK/UMass",
"6548",,"Milk Street",,"42.356837","-71.057414","Boston","Devonshire St @ Milk St","Devonshire Street"
"place-amory","Commonwealth Ave and Amory St, Boston, MA 02215",,,"42.350992","-71.114748","Boston","Amory Street",
"2880",,"Shore Drive",,"42.397237","-71.091127","Somerville","Mystic Ave @ Shore Dr","Mystic Avenue"
"5248",,"Buchanan Road",,"42.295993","-71.134235","Boston","Centre St @ Buchanan Rd","Centre Street"
"1923",,"Jersey Street",,"42.344621","-71.097778","Boston","Boylston St @ Jersey St","Boylston Street"
"node-wondl-oceanramp-bottom",,,"Wonderland - Street level of Ocean Ave ramp","42.413377","-70.990498","Revere","Wonderland",
"8182",,"Morse Street",,"42.362688","-71.192143","Watertown","Watertown St opp Morse St","Watertown Street"
"4186",,"West Street",,"42.169097","-71.045626","Randolph","N Main St @ West St","North Main Street"
"Boat-Quincy","Marina Bay near Squantum Point Park, Quincy, MA 02171",,"Quincy - Quincy Ferry","42.30132","-71.03201","Quincy","Quincy",
"node-sstat-bldgescdown-ground",,,"South Station - Top of escalators from Commuter Rail concourse",,,"Boston","South Station",
"9061",,"Spruce Street",,"42.433812","-71.043512","Malden","Salem St @ Spruce St","Salem Street"
"6528",,"Thompson Street",,"42.253519","-71.132125","Boston","Reservation Rd @ Thompson St","Reservation Road"
"250",,"Flaherty Way",,"42.339575","-71.055477","Boston","B St @ W 5th St","B Street"
"1679",,"Crossman Road",,"42.461377","-71.171197","Woburn","254 Cambridge Rd","Cambridge Street"
"55011",,,,"42.391021","-71.070228","Boston","Alford St @ MWRA Pump Station","Alford Street"
"3473",,"Wharf Street",,"42.269454","-71.06745","Milton","Adams St @ Wharf St","Adams Street"
"7907",,"Larchmont Lane",,"42.458073","-71.237239","Lexington","Bedford St @ Reed St","Bedford Street"
"18581",,"Ashfield Street",,"42.291142","-71.132098","Boston","Walter St opp Ashfield St","Walter Street"
"door-sdmnl-walley",,,"Suffolk Downs - Walley St","42.39064","-70.997388","Boston","Suffolk Downs - Walley St",
"3158",,"Ditmar Street",,"42.28633","-71.024886","Quincy","E Squantum @ Ditmar St","East Squantum Street"
"9070010",,"Ruggles Street","Ruggles - Orange Line Forest Hills Shuttle - Tremont St @ Ruggles St","42.335346","-71.088016","Boston","Ruggles - Tremont St @ Ruggles St","Tremont Street"
"1808",,,,"42.3471","-71.105198","Boston","Park Dr @ Beacon St","Park Drive"
"11244",,,,"42.326102","-71.062666","Boston","South Bay Mall @ Allstate Rd",
"70144",,,"Boston University Central - Green Line - Park Street & North","42.350013","-71.106902","Boston","Boston University Central",
"70268",,,"Milton - Mattapan Trolley - Ashmont","42.270308","-71.067289","Milton","Milton",
"place-FB-0143","14 Hill St, Norwood, MA 02062",,,"42.196857","-71.196688","Norwood","Norwood Depot",
"81651",,"Washington Park",,"42.349069","-71.20674","Newton","Walnut St @ Washington Pk","Walnut Street"
"node-chncl-oglower-lobby",,,"Chinatown - Bottom of stairs between lobby and landing",,,"Boston","Chinatown",
"node-398-rl",,,"South Station - Bottom of Escalator 398",,,"Boston","South Station",
"5098","Washington St and E Berkeley St, Boston, MA","East Berkeley Street","Washington St @ E Berkeley St - Silver Line - Nubian","42.343739","-71.066256","Boston","Washington St @ E Berkeley St","Washington Street"
"4824",,"Palmer Avenue",,"42.473987","-70.894142","Swampscott","Humphrey St @ Palmer Ave","Humphrey Street"
"4382",,"Alrick Road",,"42.254539","-71.028377","Quincy","Adams St @ Alrick Rd","Adams Street"
"2487",,"Ely Road",,"42.420017","-71.189071","Arlington","Appleton St @ Ely Rd","Appleton Street"
"111803",,"Centre Street",,"42.156685","-71.145661","Canton","Washington St @ Canton Center Station","Washington Street"
"609",,"La Grange Street",,"42.272872","-71.143932","Boston","Washington St @ Lagrange St","Washington Street"
"8671",,"Chamberlain Terrace",,"42.377556","-71.226086","Waltham","Main St @ Chamberlain Terr","Main Street"
"node-astao-folplatstair-lobby",,,"Assembly - Top of platform stairs for Foley Street","42.393071","-71.077278","Somerville","Assembly",
"7415",,,,"42.430745","-71.020858","Revere","Squire Rd opp Super Stop + Shop","Squire Road"
"3720",,"Dewey Road",,"42.232414","-70.974992","Braintree","Quincy Ave opp Dewey Rd","Quincy Avenue"
"70218",,,"Saint Paul Street - Green Line - Park Street & North","42.343118","-71.117498","Brookline","Saint Paul Street",
"71855",,"Dartmouth Street",,"42.348245","-71.076218","Boston","Stuart St @ Dartmouth St","Stuart Street"
"node-rbmnl-beachstair",,,"Revere Beach - Bottom of stairs for Beach Street","42.408327","-70.992529","Revere","Revere Beach",
"3900",,,,"42.155852","-71.008642","Holbrook","N Franklin St @ Jewel Rd","North Franklin Street"
"2691",,"Packard Avenue",,"42.402309","-71.12519","Somerville","Broadway opp Packard Ave","Broadway"
"node-andrw-nibstairs-lobby",,,"Andrew - Top of north inbound stairs",,,"Boston","Andrew",
"place-FB-0148","164 Broadway, Norwood, MA 02062",,,"42.188775","-71.199665","Norwood","Norwood Central",
"920",,"Washington Street",,"42.348903","-71.150156","Boston","Cambridge St @ Washington St","Cambridge Street"
"91852",,,"Needham Junction - West Parking Lot","42.273039","-71.237947","Needham","Needham Junction",
"7519",,"Putnam Street",,"42.452085","-71.017513","Saugus","Essex St @ Putnam St","Essex Street"
"FR-0451-01",,,"North Leominster - Commuter Rail - Track 1 (Outbound)","42.539017","-71.739186","Leominster","North Leominster",
"WR-0264-B2",,,"Lawrence - Commuter Rail Shuttle - Busway","42.701961","-71.152442","Lawrence","Lawrence - Busway",
"1780",,,,"42.337436","-71.104448","Boston","Longwood Ave @ Blackfan St","Longwood Avenue"
"node-aport-buses-farepaid",,,"Airport - Paid side of fare gates","42.374122","-71.030096","Boston","Airport",
"place-NHRML-0254","101 Thorndike St, Lowell, MA 01852",,,"42.63535","-71.314543","Lowell","Lowell",
"node-aqucl-wbatlanticstairs-lobby",,,"Aquarium - Top of stairs between platform and Atlantic Avenue",,,"Boston","Aquarium",
"51835",,"Clyde Street",,"42.318402","-71.14092","Brookline","Lee St @ Sears Rd","Lee Street"
"5788",,"School Street",,"42.408978","-71.008839","Revere","Central Ave @ School St","Central Avenue"
"4240",,"Centre Street",,"42.14449","-71.041408","Randolph","S Main St @ Centre St","South Main Street"
"7548",,,,"42.445043","-71.028216","Melrose","Broadway @ A St","Broadway"
"5211",,"Gertrude Road",,"42.280761","-71.148451","Boston","Park St opp Gertrude Rd","Park Street"
"node-702-lobby",,,"Wonderland - Lobby level of garage elevator","42.413499","-70.991905","Revere","Wonderland",
"2792",,"Deforest Street",,"42.271001","-71.131905","Boston","Poplar St @ Deforest St","Poplar Street"
"75791",,"Waverley Street",,"42.38166","-71.201237","Waltham","Warren St @ Webster Rd","Warren Street"
"2510",,,,"42.379996","-71.096698","Somerville","Somerville Ave @ Union Square","Somerville Avenue"
"70242",,,"Symphony - Green Line - Park Street & North","42.342687","-71.085056","Boston","Symphony",
"node-symcl-eb-fareunpaid",,,"Symphony - Unpaid side of fare gates",,,"Boston","Symphony",
"45834",,"Gordan Road",,"42.418603","-71.018902","Revere","Cushman Ave @ Newhall St","Cushman Avenue"
"246",,,,"42.344167","-71.039113","Boston","Summer St @ Pappas Way","Summer Street"
"door-wondl-oceannele",,,"Wonderland - Ocean Ave North Elevator","42.413537","-70.990558","Revere","Wonderland - Ocean Ave North Elevator",
"place-pktrm","Tremont St and Winter St, Boston, MA 02108",,,"42.356395","-71.062424","Boston","Park Street",
"5620",,"Forsyth Street",,"42.398055","-71.030839","Chelsea","Washington Ave @ Cary Ave","Washington Avenue"
"962",,"Linden Street",,"42.352908","-71.130286","Boston","Brighton Ave @ Linden St","Brighton Avenue"
"node-tumnl-tre-farepaid",,,"Tufts Medical Center - Paid side of fare gates",,,"Boston","Tufts Medical Center",
"76479",,"Walk Hill Street",,"42.296076","-71.116079","Boston","Hyde Park Ave @ Walk Hill St","Hyde Park Avenue"
"15970",,"Converse Lane",,"42.446076","-71.071749","Melrose","Pleasant St opp Converse Ln","Pleasant Street"
"door-fldcr-busway",,,"Fields Corner - Busway, Street","42.300019","-71.061475","Boston","Fields Corner - Busway, Street",
"3216",,"Felton Street",,"42.274369","-71.023884","Quincy","Billings Rd @ Felton St","Billings Road"
"1617",,"Margaretta Drive",,"42.257205","-71.146429","Boston","Opp 67 Crown Point Dr","Crown Point Drive"
"1552",,"Cypress Street",,"42.324798","-71.121275","Brookline","High St @ Cypress St","High Street"
"5983",,"Frances Street",,"42.449478","-71.07064","Melrose","Pleasant St @ Frances St","Pleasant Street"
"6717",,"Central Street",,"42.484","-71.011385","Saugus","Walnut St opp Central St","Walnut Street"
"17591",,"Newhall Avenue",,"42.464471","-71.014587","Saugus","56 Main St","Main Street"
"1574",,"Moreland Street",,"42.322776","-71.076673","Boston","Blue Hill Ave @ Moreland St","Blue Hill Avenue"
"6208",,"Vine Street",,"42.464335","-71.018868","Saugus","Main St @ Vine St","Main Street"
"WML-0177-B0",,,"Natick Center - Commuter Rail Outbound Shuttle - South Ave opp Adams St","42.28535","-71.3469","Natick","Natick Center - South Ave opp Adams St","South Avenue"
"3344",,"Badgers Lane",,"42.245476","-71.030007","Quincy","Copeland St @ Badgers Ln","Copeland Street"
"2598",,"Linden Street",,"42.378506","-71.09271","Somerville","Somerville Ave @ Linden St","Somerville Avenue"
"70090",,,"Fields Corner - Red Line - Alewife","42.299935","-71.061945","Boston","Fields Corner",
"5692",,"Chelsea Place",,"42.405534","-71.052426","Everett","Chelsea St @ Chelsea Pl","Chelsea Street"
"node-808-gl",,,"Park Street - Top of elevator between Red Line and Government Center & North platform, Winter Street Concourse",,,"Boston","Park Street",
"6841",,"Eastern Avenue",,"42.473682","-70.927676","Lynn","Timson St @ Eastern Ave","Timson Street"
"1939",,"Greenough Avenue",,"42.309949","-71.115345","Boston","775 Centre St","Centre Street"
"25982",,,,"42.463444","-71.091729","Stoneham","Pond St opp Stone Zoo","Pond Street"
"place-matt","500 River St, Boston, MA 02126",,,"42.26762","-71.092486","Boston","Mattapan",
"2920",,"Seaver Street",,"42.30431","-71.082426","Boston","Columbia Rd @ Seaver St","Columbia Road"
"4712",,"Oak Island Street",,"42.425253","-70.986172","Revere","N Shore Rd @ Oak Island St","North Shore Road"
"node-eliot-boyle-bridge",,,"Eliot - Top of ramp to eastbound Boylston Street","42.318272","-71.215228","Newton","Eliot",
"4927",,"Aborn Street",,"42.521226","-70.926143","Peabody","Washington St @ Aborn St","Washington Street"
"4222",,"Woodland Parkway",,"42.150475","-71.04427","Randolph","S Main St @ Stoughton St","South Main Street"
"door-eliot-meredith",,,"Eliot - Meredith Ave","42.319024","-71.216831","Newton","Eliot - Meredith Ave",
"door-balsq-broadway",,,"Ball Square - Broadway","42.399533","-71.110737","Medford","Ball Square - Broadway",
"node-437-lobby",,,"Ashmont - Top of escalator from Red Line platform to Peabody Square, busway","42.284978","-71.064163","Boston","Ashmont",
"door-chels-crnorthever",,,"Chelsea - Everett Ave, Silver Line - SL3","42.396899","-71.04015","Chelsea","Chelsea - Everett Ave, Silver Line - SL3",
"16498",,"Collins Street",,"42.270468","-71.120666","Boston","Hyde Park Ave @ Metropolitan Ave","Hyde Park Avenue"
"6",,"Harrison Avenue",,"42.332016","-71.079576","Boston","Melnea Cass Blvd @ Harrison Ave","Melnea Cass Boulevard"
"4474",,"Victory Road",,"42.48655","-70.939816","Lynn","Western Ave opp Victory Rd","Western Avenue"
"70500",,,"Lechmere - Water St Busway","42.371962","-71.07752","Cambridge","Lechmere",
"door-knncl-sbcarleton",,,"Kendall/MIT - Carleton St","42.362005","-71.086255","Cambridge","Kendall/MIT - Carleton St",
"5628",,"Garfield Avenue",,"42.405285","-71.029993","Chelsea","Sagamore Ave @ Garfield Ave","Sagamore Avenue"
"7891",,"Roberts Drive",,"42.487656","-71.266435","Bedford","Great Rd @ Roberts Dr","The Great Road"
"266",,"M Street",,"42.331439","-71.033352","Boston","E 8th St @ M St","East Eighth Street"
"FR-0451-B",,,"North Leominster - Commuter Rail Shuttle - Busway","42.538727","-71.739104","Leominster","North Leominster - Busway",
"86940",,"Harvard Street",,"42.376184","-71.243664","Waltham","Main St @ Harvard St","Main Street"
"3052",,"Woodbine Street",,"42.268787","-71.017837","Quincy","Hancock St @ Willet St","Hancock Street"
"21158",,"Plympton Street",,"42.339855","-71.069091","Boston","Harrison Ave opp Plympton St","Harrison Avenue"
"85618",,"Main Street",,"42.147068","-71.251994","Walpole","935 East St","East Street"
"node-sdmnl-pob-platform",,,"Suffolk Downs - Bottom of ramp for Wonderland platform","42.390396","-70.997086","Boston","Suffolk Downs",
"4035",,"Emerald Avenue",,"42.202928","-71.024","Braintree","Granite St @ Lundquist Dr","Granite Street"
"59618",,"Cottage Street East",,"42.193915","-71.200888","Norwood","Washington St @ Cottage St","Washington Street"
"7516",,"Staaf Road",,"42.448828","-71.01102","Saugus","Essex St @ Staaf Rd","Essex Street"
"FR-0361-01",,,"Ayer - Commuter Rail - Track 1","42.559074","-71.588476","Ayer","Ayer",
"4570",,"Bartholomew Street",,"42.512898","-70.980737","Peabody","Lynnfield St @ Bartholomew St","Lynnfield Street"
"NB-0072-B1",,,"Bellevue - Commuter Rail Boston Shuttle - Belgrade Ave @ Iona St","42.285984","-71.145019","Boston","Bellevue - Belgrade Ave @ McCraw St",
"3893",,"Damon Avenue",,"42.164464","-71.006941","Holbrook","N Franklin St opp Damon Ave","North Franklin Street"
"7178",,"Simon Street",,"42.559243","-70.882538","Beverly","Cabot St opp Simon St","Cabot Street"
"node-orhte-sara-fareunpaid",,,"Orient Heights - Unpaid side of fare gates","42.386891","-71.004446","Boston","Orient Heights",
"DB-2230",,,"Morton Street - Commuter Rail","42.280994","-71.085475","Boston","Morton Street",
"1242",,"Jefferson Street",,"42.348777","-71.066481","Boston","Tremont St @ Charles St S","Tremont Street"
"node-957-lobby",,,"Fields Corner - Bottom of elevator for Alewife platform","42.30014","-71.061747","Boston","Fields Corner",
"node-920-lobby",,,"Prudential - Top of elevator between Heath Street platform and lobby",,,"Boston","Prudential",
"1114",,"North Harvard Street",,"42.357758","-71.126505","Boston","Cambridge St @ N Harvard St","Cambridge Street"
"7960",,"Thomas Street",,"42.434309","-71.175483","Arlington","Forest St @ Thomas St","Forest Street"
"41111",,,,"42.319029","-71.045472","Boston","250 Mt Vernon St @ Geiger Gibson Health Center","Mount Vernon Street"
"2347",,"Staunton Road",,"42.401311","-71.162861","Belmont","Cross St @ Staunton Rd","Cross Street"
"6607",,,,"42.456421","-70.937571","Nahant","Lynnway Rotary @ Nahant Rd","Nahant Circle"
"2700",,"Medford Street",,"42.397203","-71.104096","Somerville","Broadway @ Medford St - Magoun Sq","Broadway"
"2189",,"Washington Street",,"42.387126","-71.161003","Belmont","Bright Rd @ Washington St","Bright Road"
"node-grnst-844-lobby",,,"Green Street - Top of Elevator 844","42.31037","-71.107662","Boston","Green Street",
"15976",,"Cleveland Street",,"42.4537","-71.07485","Melrose","Wyoming Ave @ Cleveland St","West Wyoming Avenue"
"14717",,"Beach Street",,"42.409782","-71.002099","Revere","American Legion Hwy @ Beach St - Bell Circle","American Legion Highway"
"74635",,,"Box District - Silver Line - SL3 Chelsea","42.394168","-71.028452","Chelsea","Box District","Chelsea Busway"
"8460",,"The Great Road",,"42.488997","-71.27168","Bedford","Loomis St @ Great Rd","Loomis Street"
"16683",,"Mayfair Street",,"42.490891","-70.958627","Lynn","Broadway @ Mayfair St","Broadway"
"969",,"Dustin Street",,"42.350864","-71.145539","Boston","Cambridge St @ Dustin St","Cambridge Street"
"8679",,"Longfellow Road",,"42.373561","-71.207022","Watertown","Main St opp Longfellow Rd","Main Street"
"node-forhl-crstairs-lobby",,,"Forest Hills - Top of Commuter Rail stairs","42.300807","-71.113842","Boston","Forest Hills",
"node-alfcl-wgaragestairs-fourth",,,"Alewife - Fourth floor of stairs between concourse and fifth floor of garage","42.395511","-71.142221","Cambridge","Alewife",
"WML-0012-07",,,"Back Bay - Commuter Rail - Track 7","42.34759","-71.075393","Boston","Back Bay",
"7200",,"Commonwealth Road",,"42.492939","-70.958369","Lynn","Broadway opp Commonwealth Rd","Broadway"
"23841",,"Glenwood Road",,"42.394543","-71.102259","Somerville","Medford St @ Glenwood Rd","Medford Street"
"3230",,"Mason Street",,"42.274126","-71.012354","Quincy","W Elm Ave @ Mason St","West Elm Avenue"
"7424",,"Palmer Avenue",,"42.444866","-71.012307","Saugus","Lincoln Ave opp Laurel St","Lincoln Avenue"
"door-spmnl-obrienel",,,"Science Park/West End - Monsignor O'Brien Hwy, Museum of Science (Elevator)","42.36665","-71.067966","Boston","Science Park/West End - Monsignor O'Brien Hwy, Museum of Science (Elevator)",
"5851",,"Putnam Street",,"42.377566","-71.031805","Boston","Bennington St @ Putnam St","Bennington Street"
"node-765-top",,,"Gilman Square - Top of Medford St Elevator 765","42.387695","-71.096277","Somerville","Gilman Square",
"7353",,"Verdmont Avenue",,"42.492687","-70.971927","Lynn","Lynnfield St @ Verdmont Ave","Lynnfield Street"
"5783",,"Nahant Avenue",,"42.408817","-70.99548","Revere","Beach St opp Nahant Ave","Beach Street"
"2612",,,,"42.379547","-71.095164","Somerville","Somerville Ave @ Stone Ave","Somerville Avenue"
"4249",,,,"42.1594","-71.042923","Randolph","S Main St @ Maple St","South Main Street"
"12636",,"Busway",,"42.406461","-71.132577","Somerville","Broadway opp Clarendon Hill Busway","Broadway"
"922",,"Dustin Street",,"42.350692","-71.145688","Boston","Cambridge St opp Dustin St","Cambridge Street"
"3490",,"Summit Avenue",,"42.25954","-71.030774","Quincy","Beale St @ Summit Ave","Beale Street"
"178",,"Dartmouth Street",,"42.349505","-71.076639","Boston","Saint James Ave @ Dartmouth St","Saint James Avenue"
"5397",,"Floyd Street",,"42.413477","-71.063608","Everett","Main St @ Floyd St","Main Street"
"node-rugg-forsythstairs-top",,,"Ruggles - Top of Forsyth Street entrance stairs",,,"Boston","Ruggles",
"290",,"D Street",,"42.336832","-71.053007","Boston","W 6th St @ D St","West Sixth Street"
"node-tumnl-trenbstairs-platform",,,"Tufts Medical Center - Bottom of stairs for Oak Grove, Tremont Street",,,"Boston","Tufts Medical Center",
"6171",,,,"42.5055","-70.890697","Salem","Opp 352 Lafayette St","Lafayette Street"
"1929",,"Lansdowne Street",,"42.347221","-71.094218","Boston","Ipswich St opp Lansdowne St","Ipswich Street"
"2493",,,,"42.418686","-71.204882","Lexington","Service Road West @ Watertown St","Ramp - Rt 2 Westbound Frontage Rd To Rts 4/225"
"6106",,"Cedar Street",,"42.515261","-70.8927","Salem","Lafayette St @ Cedar St","Lafayette Street"
"door-butlr-bearse",,,"Butler - Bearse Ave, Butler St","42.272115","-71.062677","Boston","Butler - Bearse Ave, Butler St",
"3351",,"Connell Street",,"42.253016","-71.03517","Quincy","Robertson St @ Connell St","Robertson Street"
"1535",,"Eliot Street",,"42.326526","-71.143465","Brookline","Boylston St @ Chestnut Hill Ave","Boylston Street"
"7340",,,,"42.510149","-70.989516","Lynn","Lynnfield St opp Lookout Terr","Lynnfield Street"
"node-dwnxg-stair4-platform",,,"Downtown Crossing - Bottom of stairs between Alewife platform and Chauncy Street lobby",,,"Boston","Downtown Crossing",
"node-alfcl-pickstairs-top",,,"Alewife - Top of stairs between concourse and pick-up/drop-off","42.395639","-71.142093","Cambridge","Alewife",
"node-419-middle",,,"South Station - Bottom of Escalator 419",,,"Boston","South Station",
"6605",,"Tudor Street",,"42.459213","-70.935115","Lynn","Nahant St @ Tudor St","Nahant Street"
"node-welln-fhstair-platform",,,"Wellington - Bottom of stairs for platform for all trains","42.40206","-71.077163","Medford","Wellington",
"93618",,,,"42.147256","-71.240311","Walpole","710 East St opp Kendall St","East Street"
"NEC-1851-01",,,"Providence - Commuter Rail - Track 1","41.829293","-71.413301","Providence","Providence",
"8500",,"Stearns Street",,"42.320874","-71.194147","Newton","200 Parker St opp Stearns St","Parker Street"
"4328",,"White Street",,"42.255038","-71.029611","Quincy","Adams St opp White St","Adams Street"
"2801",,"Kittredge Street",,"42.280149","-71.131686","Boston","Metropolitan Ave @ Kittredge St","Metropolitan Avenue"
"4523",,"Stanley Terrace",,"42.460699","-70.967777","Lynn","Western Ave @ Walden St","Western Avenue"
"3175",,"Holbrook Road",,"42.267489","-71.03657","Quincy","Harvard St @ Holbrook Rd","Harvard Street"
"node-905-passage",,,"Haymarket - Bottom of elevator between Forest Hills platform and Green Line, busway passageway",,,"Boston","Haymarket",
"7836",,,,"42.354866","-71.242884","Newton","180 Lexington St","Lexington Street"
"10015",,"East Newton Street",,"42.337402","-71.072162","Boston","Harrison Ave @ E Newton St","Harrison Avenue"
"1811",,"Waverly Street",,"42.355374","-71.109987","Cambridge","Brookline St @ Granite St","Brookline Street"
"42876",,,,"42.388869","-71.080039","Somerville","Mystic Ave @ Plaza Entrance - Home Depot","Mystic Avenue"
"632",,"Cornell Street",,"42.279437","-71.135573","Boston","Washington St @ Cornell St","Washington Street"
"7625",,"Chestnut Street",,"42.349257","-71.225082","Newton","Washington St @ Chestnut St","Washington Street"
"3710",,"Prospect Street",,"42.218813","-70.967001","Weymouth","Washington St @ Prospect St","Washington Street"
"214",,"East Service Road",,"42.351012","-71.043647","Boston","Seaport Blvd @ Pier 4 Blvd","Seaport Boulevard"
"node-prmnl-ebstair-lobby",,,"Prudential - Top of Park Street & North stairs",,,"Boston","Prudential",
"8518",,"Newtonville Avenue",,"42.351591","-71.186111","Newton","Centre St @ Newtonville Ave","Centre Street"
"1755",,"Wensley Street",,"42.326453","-71.100404","Boston","Heath St @ Wensley St","New Heath Street"
"node-768-bottom",,,"Magoun Square - Bottom of Elevator 768","42.393894","-71.106514","Somerville","Magoun Square",
"6603",,"Baltimore Street",,"42.461609","-70.937398","Lynn","Nahant St @ W Baltimore St","Nahant Street"
"place-NBM-0546","536 Acushnet Ave, New Bedford, MA 02740",,,"41.643703","-70.9252","New Bedford","New Bedford",
"2025",,"Longfellow Road",,"42.374987","-71.134068","Cambridge","Mt Auburn St @ Longfellow Rd","Mount Auburn Street"
"node-shmnl-endstair-platform",,,"Savin Hill - Bottom of northern stairs between platform and lobby","42.311098","-71.053417","Boston","Savin Hill",
"3463",,"Brook Road",,"42.2594","-71.044501","Milton","Adams St opp Brook Rd","Adams Street"
"8970",,,,"42.244718","-71.137011","Boston","River St opp Neponset Valley Pkwy","River Street"
"door-fldcr-charles",,,"Fields Corner - Charles St","42.300463","-71.061868","Boston","Fields Corner - Charles St",
"2774",,"McGrath Highway",,"42.379792","-71.089974","Somerville","Washington St @ Medford St","Washington Street"
"4307",,"Hilltop Street",,"42.231815","-71.070723","Milton","Randolph Ave @ Hilltop St","Randolph Avenue"
"node-rcmnl-134-lobby",,,"Roxbury Crossing - Top of Escalator 134","42.331227","-71.095574","Boston","Roxbury Crossing",
"door-dwnxg-hawley",,,"Downtown Crossing - Hawley St (Escalator)","42.355229","-71.059366","Boston","Downtown Crossing - Hawley St (Escalator)",
"1698",,"Skilton Lane",,"42.51248","-71.20203","Burlington","Cambridge St @ Skilton Ln","Cambridge Street"
"place-FR-0137","105 Viles St, Weston, MA 02493",,,"42.385755","-71.289203","Weston","Hastings",
"7386",,"Hamilton Street",,"42.460465","-70.98878","Lynn","Boston St @ Hamilton St","Boston Street"
"node-waban-beacon-stairs",,,"Waban - Bottom of stairs to Beacon Street","42.326257","-71.23089","Newton","Waban",
"node-andrw-nibstairs-platform",,,"Andrew - Bottom of north inbound stairs",,,"Boston","Andrew",
"43011",,"Scanlon Drive",,"42.201087","-71.06251","Randolph","N Main St @ Russ St","North Main Street"
"6408",,"Woodglen Road",,"42.244739","-71.122396","Boston","Washington St @ Woodglen Rd","Washington Street"
"2737",,"Pearson Road",,"42.400501","-71.113803","Somerville","Broadway @ Pearson Rd","Broadway"
"3979",,"Laurel Park",,"42.134006","-71.00752","Holbrook","S Franklin St @ Laurel Pk","South Franklin Street"
"70129",,,"Griggs Street - Green Line - (B) Boston College","42.348919","-71.134305","Boston","Griggs Street",
"door-prmnl-huntington",,,"Prudential - Huntington Ave","42.345791","-71.081609","Boston","Prudential - Huntington Ave",
"4310",,"Hallen Avenue",,"42.238452","-71.069448","Milton","Randolph Ave opp Hallen Ave","Randolph Avenue"
"7337",,"Tuscan Road",,"42.50594","-70.982749","Lynn","Lynnfield St @ Tuscan Rd","Lynnfield Street"
"1147",,"Shawmut Avenue",,"42.328969","-71.086206","Boston","Dudley St @ Guild Row","Dudley Street"
"8462",,"Hartford Street",,"42.486395","-71.277032","Bedford","Loomis St @ Hartford St","Loomis Street"
"3482",,,,"42.261806","-71.059033","Milton","Adams St @ Fontbonne Academy","Adams Street"
"2580",,"Jay Street",,"42.399341","-71.124909","Somerville","Holland St @ Jay St","Holland Street"
"4470",,,,"42.49614","-70.932565","Salem","Highland Ave @ 400 Highland Place","Highland Avenue"
"520",,"Morton Street",,"42.30135","-71.109364","Boston","Arborway @ Courthouse","Arborway"
"3669",,"Church Street",,"42.229923","-70.943969","Weymouth","North St @ Church St","North Street"
"1026",,,,"42.348296","-71.153761","Boston","Chestnut Hill Ave @ Veronica Smith Ctr","Chestnut Hill Avenue"
"47618",,"Jacobs Road",,"42.168591","-71.211237","Norwood","Washington St opp Rockhill St","Washington Street"
"70025",,,"Haymarket - Orange Line - Oak Grove","42.363021","-71.05829","Boston","Haymarket",
"7476",,"Newhall Avenue",,"42.464586","-71.014678","Saugus","59 Main St","Main Street"
"3630",,"Southern Artery",,"42.248184","-70.982677","Quincy","Washington St @ Southern Artery","Washington Street"
"807",,"Corey Street",,"42.286119","-71.155081","Boston","Centre St @ Corey St","Centre Street"
"8271",,"Beverly Road",,"42.426582","-71.152233","Arlington","294 Mystic St opp Beverly Rd","Mystic Street"
"85566",,"Amesbury Street",,"42.28175","-71.168981","Boston","Baker St @ Amesbury St","Baker Street"
"70112",,,"Chestnut Hill Avenue - Green Line - Park Street & North","42.33873","-71.152526","Boston","Chestnut Hill Avenue",
"9070112",,"Chestnut Hill Avenue","Chestnut Hill Avenue - Green Line Park Street & North Shuttle","42.33802","-71.15411","Boston","Chestnut Hill Avenue - Commonwealth Ave @ Chestnut Hill Ave","Commonwealth Avenue"
"45211",,,,"42.456007","-70.973048","Lynn","Western Ave opp Ida St","Western Avenue"
"3055",,"Albion Road",,"42.271677","-71.022563","Quincy","Hancock St @ Albion Rd","Hancock Street"
"3299",,"Brockton Avenue",,"42.257293","-70.970922","Quincy","Palmer St opp Brockton Ave","Palmer Street"
"56567",,"Reservation Road",,"42.246499","-71.128529","Boston","1532 Hyde Park Ave opp Reservation Rd","Hyde Park Avenue"
"3996",,"Diman Avenue",,"42.128749","-71.008903","Holbrook","S Franklin St @ Diman Ave","South Franklin Street"
"1777",,"Pilgrim Road",,"42.342351","-71.103831","Boston","Brookline Ave @ Pilgrim Rd","Brookline Avenue"
"1115",,"Windom Street",,"42.358658","-71.123967","Boston","Cambridge St @ Seattle St","Cambridge Street"
"2885",,"Billings Avenue",,"42.408486","-71.104066","Medford","Mystic Ave opp Billings Ave","Mystic Avenue"
"4537",,"Waitt Avenue",,"42.48415","-70.94221","Lynn","Western Ave @ Waitt Ave","Western Avenue"
"7210",,"Verona Street",,"42.485355","-70.950863","Lynn","Euclid Ave @ Verona St","Euclid Avenue"
"node-936-lobby",,,"World Trade Center - Top of outbound platform elevator",,,"Boston","World Trade Center",
"7813",,"Spruce Street",,"42.370855","-71.2399","Waltham","Crescent St opp Spruce St","Crescent Street"
"9070502",,"Water Street","Lechmere - Green Line Shuttle - Monsignor O'Brien Hwy opp Gore St","42.371793","-71.077843","Cambridge","Lechmere - Monsignor O'Brien Hwy opp Gore St","Monsignor O'Brien Highway"
"node-spmnl-sfarepaid",,,"Science Park/West End - Paid side of fare gates","42.36677","-71.06786","Boston","Science Park/West End",
"57618",,,,"42.189515","-71.202573","Norwood","Washington St @ Norwood Hospital","Washington Street"
"7890",,"Brooksbie Road",,"42.488167","-71.268268","Bedford","Great Rd opp Brooksbie Rd","The Great Road"
"926",,"Islington Street",,"42.353347","-71.136687","Boston","Brighton Ave @ Cambridge St","Brighton Avenue"
"212",,"D Street",,"42.345781","-71.04118","Boston","Summer St @ D St","Summer Street"
"636",,"Cummins Highway",,"42.28666","-71.127791","Boston","Washington St @ Cummins Hwy","Washington Street"
"8993",,"Newbury Street",,"42.348062","-71.097773","Boston","Brookline Ave opp Newbury St","Brookline Avenue"
"NB-0109-B0",,,"Hersey - Commuter Rail Outbound Shuttle","42.276121","-71.215341","Needham","Hersey",
"782",,"Bird Place",,"42.283608","-71.156948","Boston","Centre St @ Bellevue St","Centre Street"
"24619",,"Incinerator Road",,"42.253892","-71.16643","Dedham","Washington St @ Incinerator Rd","Washington Street"
"5643",,"Luke Road",,"42.402798","-71.044177","Everett","271 Chelsea St opp Luke Rd","Chelsea Street"
"1853",,"Wedgewood Road",,"42.294255","-71.136678","Boston","Weld St opp Wedgewood Rd","Weld Street"
"852",,"Temple Street",,"42.285412","-71.168478","Boston","Vermont St @ Temple St","Vermont Street"
"6569",,,,"42.404686","-71.075506","Medford","Corporation Way","Corporation Way"
"9142",,"Mountain Street",,"42.51472","-71.160818","Woburn","Main St opp Mountain St","Main Street"
"WML-0035-B0",,"Arthur Street","Boston Landing - Commuter Rail Outbound Shuttle - Guest St @ Arthur St","42.35658","-71.14208","Boston","Boston Landing - Guest St @ Arthur St","Guest Street"
"6165",,"Grant Road",,"42.495959","-70.894994","Salem","Loring Ave @ Grant Rd","Loring Avenue"
"4782",,"West Street",,"42.483599","-70.887888","Marblehead","Humphrey St @ May St","Humphrey Street"
"node-374-lobby",,,"State - Top of escalator from Oak Grove platform to City Hall",,,"Boston","State",
"8552",,"Walsh Road",,"42.289904","-71.191003","Newton","Sawmill Brook Pkwy @ Walsh Rd","Sawmill Brook Parkway"
"7839",,"Buttrick Street",,"42.359406","-71.243538","Waltham","Rumford Ave @ Buttrick St","Rumford Avenue"
"70176",,,"Beaconsfield - Green Line - Park Street & North","42.335625","-71.140112","Brookline","Beaconsfield",
"node-803-sbplatform",,,"State - Bottom of Elevator 803 between Milk Street to lobby",,,"Boston","State",
"place-bbsta","145 Dartmouth St Boston, MA 02116",,,"42.34735","-71.075727","Boston","Back Bay",
"1438",,,,"42.362939","-71.159401","Watertown","Arsenal St @ Bond St","Arsenal Street"
"5372",,"Main Street",,"42.42515","-71.067134","Malden","Centre St @ Main St","Centre Street"
"6462",,"Sherwood Street",,"42.282871","-71.123861","Boston","Cummins Hwy @ Sherwood St","Cummins Highway"
"2745",,"Pearl Street",,"42.385796","-71.087692","Somerville","Cross St @ Pearl St","Cross Street"
"767",,"Linden Road",,"42.266178","-71.16286","Boston","Centre St @ Linden Rd","Centre Street"
"7131",,"Church Street",,"42.549149","-70.878211","Beverly","Cabot St @ Federal St","Cabot Street"
"70619",,"Dean Avenue",,"42.221195","-71.187628","Westwood","Washington St @ Dean Ave","Washington Street"
"place-esomr","134 Washington St, Somerville, MA 02143",,,"42.379467","-71.086625","Somerville","East Somerville",
"5822",,"Woods Avenue",,"42.402491","-70.999702","Revere","Revere Beach Pkwy @ Woods Ave","Revere Beach Parkway"
"door-kencl-beacon",,,"Kenmore - Boston University, Beacon St","42.349273","-71.095549","Boston","Kenmore - Boston University, Beacon St",
"6460",,"Rowe Street",,"42.280681","-71.120534","Boston","Cummins Hwy @ Rowe St","Cummins Highway"
"door-rbmnl-ocean",,,"Revere Beach - 300 Ocean Ave","42.4079","-70.99211","Revere","Revere Beach - 300 Ocean Ave",
"5587",,,,"42.413224","-71.033033","Chelsea","60 Woodlawn Ave","Woodlawn Avenue"
"6257",,"Derby Road",,"42.423503","-71.01749","Revere","Malden St @ Derby Rd","Malden Street"
"1301",,"Washington Street",,"42.348814","-71.150755","Boston","7 Winship St","Winship Street"
"node-butlr-ramp-platform",,,"Butler - Bottom of ramp for Bearse Avenue","42.272359","-71.062462","Boston","Butler",
"node-rugg-bus2stairs-busway",,,"Ruggles - Bottom of Lower Busway Lane 2 stairs",,,"Boston","Ruggles",
"NEC-2040-02",,,"Mansfield - Commuter Rail - Track 2 (Boston)","42.032787","-71.219917","Mansfield","Mansfield",
"6175",,"Laurel Street",,"42.509572","-70.89149","Salem","Lafayette St @ Willow Ave","Lafayette Street"
"4235",,"Acorn Drive",,"42.137689","-71.04001","Randolph","S Main St @ Acorn Dr","South Main Street"
"511",,"Fendale Avenue",,"42.279234","-71.069699","Boston","Washington St @ Gallivan Blvd","Washington Street"
"4316",,"Maywood Avenue",,"42.248975","-71.009571","Quincy","Whitwell St @ Maywood Ave","Whitwell Street"
"node-coecl-976-platform",,,"Copley - Bottom of Park Street & East platform Elevator 976","42.34977","-71.078123","Boston","Copley",
"5104",,"College Avenue","Davis - Busway","42.396646","-71.121879","Somerville","Davis","Busway"
"13407",,"Access Road",,"42.246089","-71.006084","Quincy","125 Granite St","Granite Street"
"12323",,"Oakland Avenue",,"42.417802","-71.180683","Arlington","Park Ave @ Oakland Ave","Park Avenue"
"2804",,"Highfield Road",,"42.277545","-71.127459","Boston","Metropolitan Ave @ Highfield Rd","Metropolitan Avenue"
"4615",,"Endicott Street",,"42.548524","-70.942572","Danvers","Commonwealth Ave @ Endicott St","Commonwealth Ave"
"39682",,"Elm Lawn Road",,"42.226231","-70.992946","Braintree","Elm St @ Drinkwater Ave","Elm Street"
"22618",,"Prospect Street",,"42.203594","-71.196657","Norwood","Washington St @ Fulton St","Washington Street"
"node-961-top",,,"Alewife - Top of Elevator 961 between Russell Field lobby and Red Line platform","42.39612","-71.139856","Cambridge","Alewife",
"7591",,"Newhall Avenue",,"42.464351","-71.016384","Saugus","78 Main St","Main Street"
"5435",,"Orchard Street",,"42.435046","-71.045519","Malden","Lebanon St @ Orchard St","Lebanon Street"
"SB-0150-06",,,"Canton Junction - Commuter Rail - Track 6","42.163115","-71.153581","Canton","Canton Junction",
"6392",,"Fairmount Avenue",,"42.252485","-71.117976","Boston","Beacon St @ Fairmount Ave","Beacon Street"
"4066",,,,"42.172898","-71.034781","Randolph","327 North St","North Street"
"node-901-rl",,,"South Station - Red Line level of Elevator 901",,,"Boston","South Station",
"289",,"E Street",,"42.335827","-71.051409","Boston","W 6th St @ E St","West Sixth Street"
"2615",,"Parker Street",,"42.379408","-71.100221","Somerville","Washington St opp Parker St","Washington Street"
"3195",,"Oakland Avenue",,"42.260512","-71.014387","Quincy","Newport Ave @ Oakland Ave","Newport Avenue"
"4793",,"Lafayette Street",,"42.49383","-70.870158","Marblehead","Humphrey St @ Lafayette St","Humphrey Street"
"node-415-platform",,,"Courthouse - Bottom of escalator from outbound platform to lobby",,,"Boston","Courthouse",
"6744",,"New Castle Street",,"42.467855","-70.987587","Lynn","Kings Hill Dr @ Newcastle St","Kings Hill Drive"
"55600",,"Geneva Avenue",,"42.299024","-71.063789","Boston","Fields Corner Sta @ Geneva Ave","Busway"
"12652",,"Cleveland Street",,"42.408588","-71.137313","Arlington","Broadway @ Cleveland St","Broadway"
"8540",,"Meadowbrook Road",,"42.305185","-71.193871","Newton","Dedham St opp Meadowbrook Rd","Dedham Street"
"10013",,"East Dedham Street",,"42.337556","-71.067875","Boston","Albany St @ E Dedham St","Albany Street"
"8274",,"Rangeley Road",,"42.420083","-71.152743","Arlington","144 Mystic St opp Rangely Rd","Mystic Street"
"5377",,"Franklin Street",,"42.426929","-71.059522","Malden","Eastern Ave @ Franklin St","Eastern Avenue"
"1061",,"Kinnaird Street",,"42.364952","-71.108901","Cambridge","Western Ave @ Kinnaird St","Western Avenue"
"node-427-platform",,,"Fields Corner - Top of escalator to Alewife platform","42.299892","-71.062021","Boston","Fields Corner",
"ER-0227-B1",,"Railroad Avenue","Hamilton/Wenham - Commuter Rail Boston Shuttle - Bay Rd @ Railroad Ave","42.610426","-70.874816","Hamilton","Hamilton/Wenham - Bay Rd @ Railroad Ave","Bay Road"
"node-982-lobby",,,"Porter - Lobby level of Elevator 982 between street and lobby","42.388288","-71.118866","Cambridge","Porter",
"node-721-lobby",,,"Government Center - Top of elevator between plaza and Green Line","42.359606","-71.059409","Boston","Government Center",
"NHRML-0218",,,"North Billerica - Commuter Rail","42.593248","-71.280995","Billerica","North Billerica",
"ER-0208-B0",,"Dodge Street","North Beverly - Commuter Rail Outbound Shuttle - Enon St @ Dodge St","42.583313","-70.88429","Beverly","North Beverly - Enon St @ Dodge St","Enon Street"
"9038",,"First Street",,"42.411411","-71.079279","Medford","Middlesex Ave @ First St","Middlesex Avenue"
"7445",,"Browns Avenue",,"42.461917","-70.98615","Lynn","Boston St @ Browns Ave","Boston Street"
"node-davis-farepaid",,,"Davis - Paid side of fare gates",,,"Somerville","Davis",
"4870",,,,"42.483844","-70.89883","Swampscott","Salem St @ Sunbeam Ln","Salem Street"
"4930",,"Water Street",,"42.531556","-70.927303","Peabody","Central St @ Community Life Center","Central Street"
"8341",,"Victory Road",,"42.296877","-71.049066","Boston","Puritan Mall Service Rd","Morrissey Service Road"
"node-bbsta-olestairs-lobby",,,"Back Bay - Top of Orange Line platform west stairs",,,"Boston","Back Bay",
"1924",,"Peterborough Street",,"42.343165","-71.099663","Boston","Kilmarnock St @ Peterborough St","Kilmarnock Street"
"node-spmnl-sfareunpaid",,,"Science Park/West End - Unpaid side of fare gates","42.36677","-71.06786","Boston","Science Park/West End",
"8942",,"River Street",,"42.25236","-71.131005","Boston","Reservation Rd @ River St","Reservation Road"
"door-dwnxg-franklin",,,"Downtown Crossing - Franklin St","42.356064","-71.059326","Boston","Downtown Crossing - Franklin St",
"94618",,"Eastover Road",,"42.147177","-71.243081","Walpole","East St @ Eastover Rd","East Street"
"128",,"Magazine Street",,"42.327984","-71.067744","Boston","Massachusetts Ave opp Magazine St","Massachusetts Avenue"
"70078",,,"Downtown Crossing - Red Line - Alewife","42.355518","-71.060225","Boston","Downtown Crossing",
"4563",,,,"42.522575","-70.895725","Salem","Washington St @ Church St","Washington Street"
"7150",,"Derby Street",,"42.520766","-70.890195","Salem","Hawthorne Blvd @ Derby St","Hawthorne Boulevard"
"3245",,"Curlew Road",,"42.262106","-70.983568","Quincy","405 Sea St","Sea Street"
"3111",,"Mascoma Street",,"42.267761","-71.031124","Quincy","Wilson Ave opp Mascoma St","Wilson Avenue"
"WR-0085-B0",,"Walton Place","Greenwood - Commuter Rail Outbound Shuttle - Main St @ Walton Pl","42.484284","-71.067731","Wakefield","Greenwood - Main St @ Walton Pl","Main Street"
"node-379-lobby",,,"Beachmont - Bottom of Escalator 379","42.397384","-70.992387","Revere","Beachmont",
"5563",,,,"42.40268","-71.06754","Everett","Santilli Circle","Santilli Circle Connector"
"6230",,"Jasper Street",,"42.462849","-71.009496","Saugus","Central St @ Jasper St","Central Street"
"4731",,,,"42.397215","-71.008321","Revere","Opp 40 Burbank Hwy","Lee Burbank Highway"
"1040",,"Guest Street",,"42.357313","-71.148285","Boston","Market St @ Guest St","Market Street"
"2274",,"Gladstone Street",,"42.400762","-71.13535","Cambridge","Massachusetts Ave @ Gladstone St","Massachusetts Avenue"
"4227",,"Frederickson Drive",,"42.14215","-71.040927","Randolph","625 S Main St opp Frederickson Dr","South Main Street"
"477",,"Harvard Avenue",,"42.300873","-71.076116","Boston","Washington St @ Vassar St","Washington Street"
"3141",,"Huckins Avenue",,"42.296929","-71.017453","Quincy","E Squantum St @ Essex St","East Squantum Street"
"5927",,"Bellevue Avenue",,"42.45742","-71.058591","Melrose","Upham St @ Bellevue Ave","Upham Street"
"place-FR-0132","198 Church St, Weston, MA",,,"42.37897","-71.282411","Weston","Kendal Green",
"9146",,,,"42.429733","-71.129796","Medford","578 Winthrop St","Winthrop Street"
"27618",,"Guild Street",,"42.191284","-71.202528","Norwood","Washington St @ Guild St","Washington Street"
"node-806-ground",,,"Quincy Adams - Ground level of Elevator 806 ","42.233073","-71.007199","Quincy","Quincy Adams",
"3604",,,,"42.249231","-70.914667","Hingham","Lincoln St @ USS Amesbury Dr","Lincoln Street"
"1508",,,,"42.311094","-71.062621","Boston","Hancock St @ Bowdoin St","Hancock Street"
"4907",,"Millett Road",,"42.467937","-70.903688","Swampscott","Humphrey St @ Millett Rd","Humphrey Street"
"2125",,"Oakley Road",,"42.37782","-71.169553","Belmont","Belmont St @ Oakley Rd","Belmont Street"
"4562",,"New Derby Street",,"42.519945","-70.89534","Salem","Washington St @ New Derby St","Washington Street"
"2937",,"Sexton Court",,"42.321914","-71.061132","Boston","Boston St @ Mayhew St","Boston Street"
"node-qamnl-busway-northdoor",,,"Quincy Adams - North door between lobby and busway","42.233312","-71.007123","Quincy","Quincy Adams",
"70150",,,"Kenmore - Green Line - Park Street & North","42.348949","-71.095169","Boston","Kenmore",
"4547",,"Green Ledge Street",,"42.50134","-70.925538","Salem","Highland Ave @ Greenledge St","Highland Avenue"
"5482",,,,"42.423469","-71.042806","Malden","990 Broadway opp Grover St","Broadway"
"70202",,,"Government Center - Green Line - Copley & West","42.359705","-71.059215","Boston","Government Center",
"5426",,"Willow Street",,"42.428147","-71.051517","Malden","Bowdoin St @ Willow St","Bowdoin Street"
"node-pktrm-tremwfare-paid",,,"Park Street - Paid side of fare gates",,,"Boston","Park Street",
"42820",,,,"42.243524","-71.131891","Boston","Neponset Valley Pkwy @ Westinghouse Plaza","Westinghouse Plaza"
"17401",,"Elm Hill Avenue",,"42.307515","-71.089263","Boston","Seaver St opp Elm Hill Ave","Seaver Street"
"13245",,"Terne Road",,"42.262164","-70.985594","Quincy","Sea St @ Moffat Rd","Sea Street"
"6631",,"Summer Street",,"42.423108","-70.917785","Nahant","Willow Rd @ Summer St","Willow Road"
"57121",,"Fernwood Avenue",,"42.410862","-71.011956","Revere","Broadway @ Fernwood Ave","Broadway"
"5299",,"Albion Street",,"42.400288","-71.104027","Medford","Main St @ Albion St","Main Street"
"8164",,"Clyde Street",,"42.345783","-71.206015","Newton","Walnut St @ Clyde St","Walnut Street"
"4094",,"Trask Avenue",,"42.237471","-71.025834","Quincy","West St @ Trask Ave","West Street"
"2397",,"Bradley Street",,"42.38791","-71.094908","Somerville","Pearl St @ Bradley St","Pearl Street"
"ER-0128-B0",,"Burrill Street","Swampscott - Commuter Rail Shuttle - Railroad Ave @ Burrill St","42.473543","-70.922023","Swampscott","Swampscott - Railroad Ave @ Burrill St","Railroad Avenue"
"3165",,"Newbury Avenue",,"42.278346","-71.027138","Quincy","E Squantum St @ Newbury Ave","East Squantum Street"
"3261",,"Maxim Place",,"42.269214","-70.952281","Quincy","Sea St @ Bell St","Sea Street"
"PB-0281",,,"Halifax - Commuter Rail","42.014739","-70.824263","Halifax","Halifax",
"node-pktrm-cpebstairs-rl",,,"Park Street - Bottom of stairs between Red Line center platform and Government Center & North platform",,,"Boston","Park Street",
"3215",,"Tyler Street",,"42.275429","-71.022106","Quincy","Billings Rd opp Tyler St","Billings Road"
"node-735-platform",,,"Wollaston - Bottom of elevator between platform and bridge",,,"Quincy","Wollaston",
"4942",,"Rainbow Road",,"42.51261","-70.946981","Peabody","Lynn St @ Brown St","Lynn Street"
"node-365-middle",,,"Downtown Crossing - Bottom of escalator from Washington Street, Winter Street mezzanine to street",,,"Boston","Downtown Crossing",
"place-FB-0303","1000 W Central St, Franklin, MA 02038",,,"42.089941","-71.43902","Franklin","Forge Park/495",
"252",,"Joyce Hayes Way",,"42.337229","-71.055505","Boston","W 7th St @ C St","West Seventh Street"
"2894",,"Bonner Avenue",,"42.405134","-71.101203","Medford","Mystic Ave @ Bonner Ave","Mystic Avenue"
"2026",,"Traill Street",,"42.375072","-71.136647","Cambridge","Mt Auburn St @ Traill St","Mount Auburn Street"
"4925",,"Hingston Street",,"42.520137","-70.938798","Peabody","Washington St @ Hingston St","Washington Street"
"41187",,"Green Street",,"42.309302","-71.1048","Boston","Washington St @ Green St","Washington Street"
"6633",,"Christopher Drive",,"42.422754","-70.91557","Nahant","Wharf St opp Desmond Dr","Wharf Street"
"6374",,"Reddy Avenue",,"42.261657","-71.111146","Boston","River St @ Reddy Ave","River Street"
"node-symcl-hunwstair-platform",,,"Symphony - Bottom of west stairs for Massachusetts Ave, Huntington Ave",,,"Boston","Symphony",
"7433",,"Nason Road",,"42.449863","-70.998981","Saugus","Lincoln Ave @ Nason Rd","Lincoln Avenue"
"8279",,"Avery Street",,"42.353247","-71.064353","Boston","Tremont St @ Boylston Station","Tremont Street"
"596",,"Lanesville Terrace",,"42.296502","-71.117515","Boston","3867 Washington St opp Tollgate Way","Washington Street"
"574",,"Cedar Street",,"42.271399","-71.074869","Boston","River St @ Cedar St","River Street"
"44618",,"Manison Drive",,"42.163083","-71.214986","Walpole","Washington St opp Mansion Dr","Washington Street"
"node-tumnl-washsbstairs-lobby",,,"Tufts Medical Center - Top of stairs for Forest Hills, Washington Street",,,"Boston","Tufts Medical Center",
"node-dwnxg-stair1-rl",,,"Downtown Crossing - Bottom of stairs between Forest Hills platform and Alewife platform",,,"Boston","Downtown Crossing",
"39081",,"Water Street",,"42.170082","-71.008373","Braintree","Washington St @ Water St","Washington Street"
"22365",,"Heath Street",,"42.329368","-71.111046","Boston","105 S Huntington Ave","South Huntington Avenue"
"14875",,,,"42.479326","-70.90595","Swampscott","opp 331 Paradise Rd","Paradise Road"
"node-901-sl",,,"South Station - Silver Line level of Elevator 901",,,"Boston","South Station",
"door-knncl-sbelevator",,,"Kendall/MIT - Elevator, Buses, Main St, Third St, Carleton St","42.362125","-71.086145","Cambridge","Kendall/MIT - Elevator, Buses, Main St, Third St, Carleton St",
"8845",,"Edge Hill Road",,"42.376433","-71.258841","Waltham","Main St @ Edgehill Rd","Main Street"
"1857",,"Mendum Street",,"42.292587","-71.130541","Boston","144 Walter St opp Mendum St","Walter Street"
"3685",,"Commercial Street",,"42.215839","-70.925499","Weymouth","Broad St @ Commercial St","Broad Street"
"node-spmnl-ibstairs-platform",,,"Science Park/West End - Top of inbound platform stairs","42.366631","-71.067707","Boston","Science Park/West End",
"door-esomr-washington",,,"East Somerville - Washington St","42.379391","-71.086636","Somerville","East Somerville - Washington St",
"7892",,,,"42.486506","-71.26284","Bedford","Great Rd @ Shopping Center","The Great Road"
"4298",,"Bennington Street",,"42.193747","-71.060112","Randolph","N Main St @ Bennington St","North Main Street"
"door-chncl-ogessex",,,"Chinatown - Washington St, Essex St","42.352252","-71.062519","Boston","Chinatown - Washington St, Essex St",
"11164",,"Burroughs Street",,"42.311466","-71.1145","Boston","Centre St @ Burroughs St","Centre Street"
"78121",,"Jackson Street",,"42.374185","-71.231293","Waltham","River St @ Jackson St","River Street"
"7299",,"Maple Street",,"42.477865","-70.950569","Lynn","Chestnut St @ Maple Street","Chestnut Street"
"4614",,,,"42.549704","-70.931707","Danvers","Endicott St @ Market Basket","Endicott Street"
"2433",,"Beacon Street",,"42.38036","-71.108538","Somerville","Park St @ Beacon St","Park Avenue"
"139",,,,"42.31897","-71.045834","Boston","263 Mt Vernon St @ St Christopher's Church","Mount Vernon Street"
"1659",,"Glen Avenue",,"42.422552","-71.153825","Arlington","201 Mystic St","Mystic Street"
"3841",,"Ruggles Street",,"42.24369","-70.984011","Quincy","South St @ Southern Artery","South Street"
"65618",,"Ariadne Road",,"42.232748","-71.184133","Dedham","Washington St @ Ariadne Rd","Washington Street"
"9070228",,,"Fairbanks Street - Green Line Park Street & North Shuttle","42.33944","-71.130957","Brookline","Fairbanks Street",
"4473",,"Fays Avenue",,"42.487566","-70.938717","Lynn","Western Ave @ Fays Ave","Western Avenue"
"4062",,"Seton Way",,"42.169691","-71.035552","Randolph","North St @ Seton Way","North Street"
"node-770-bottom",,,"Medford/Tufts - Bottom of Elevator 770","42.407966","-71.117009","Medford","Medford/Tufts",
"node-nqncy-hstair-lobby",,,"North Quincy - Top of stairs between Hancock Street and lobby","42.276542","-71.030788","Quincy","North Quincy",
"3608",,,,"42.247978","-70.927147","Hingham","Lincoln St opp Beal St","Lincoln Street"
"3978",,"Quincy Street",,"42.135767","-71.006692","Holbrook","S Franklin St opp Quincy St","South Franklin Street"
"6824",,,,"42.46329","-70.955977","Lynn","S Common St @ Blossom St","South Common Street"
"door-newto-uniones",,,"Newton Centre - Union St (East stairs)","42.32962","-71.192341","Newton","Newton Centre - Union St (East stairs)",
"2836",,,,"42.375093","-71.063606","Boston","Warren St @ Church St","Warren Street"
"1344",,"Martin Luther King Boulevard",,"42.319441","-71.086094","Boston","Humboldt Ave @ ML King Blvd","Humboldt Avenue"
"2821",,"Medford Street",,"42.383307","-71.071852","Boston","Main St @ Bunker Hill St","Main Street"
"node-wondl-footbridgeob",,,"Wonderland - Wonderland-bound platform end of pedestrian bridge","42.413205","-70.9917","Revere","Wonderland",
"634",,"Albano Street",,"42.283304","-71.131416","Boston","Washington St @ Albano St","Washington Street"
"door-armnl-elevator",,,"Arlington - Elevator, Boylston St","42.351796","-71.07128","Boston","Arlington - Elevator, Boylston St",
"7417",,"Lynn Street",,"42.432858","-71.024087","Malden","Wesley St @ Lynn St - Linden Sq","Wesley Street"
"5424",,"Holloway Street",,"42.424947","-71.047191","Malden","172 Bowdoin St","Bowdoin Street"
"259",,"Old Harbor Street",,"42.331193","-71.047219","Boston","E 8th St @ Old Harbor St","East Eighth Street"
"5913",,"Argyle Street",,"42.454083","-71.054949","Melrose","Grove St @ Argyle St","Grove Street"
"19253",,"Harnden Street",,"42.52454","-71.102727","Reading","Main St @ Lowell St - Reading Sq","Main Street"
"16131",,,,"42.478039","-70.918443","Swampscott","Essex St @ Jackson Pk","Essex Street"
"8527",,,,"42.333418","-71.193531","Newton","Centre St @ Bowen St","Centre Street"
"4909",,"Marshall Street",,"42.467792","-70.907537","Swampscott","Humphrey St @ Cedar Hill Terr","Humphrey Street"
"BNT-0000-05",,,"North Station - Commuter Rail - Track 5","42.366618","-71.062601","Boston","North Station",
"5357",,"Rock Valley Avenue",,"42.418169","-71.050716","Everett","Ferry St @ Rock Valley Ave","Ferry Street"
"70038",,,"Bowdoin - Blue Line - Wonderland","42.361365","-71.062037","Boston","Bowdoin",
"5750",,,,"42.39476","-71.030491","Chelsea","Broadway @ Gerrish Ave","Broadway"
"66460",,"Livermore Street",,"42.27349","-71.108216","Boston","Cummins Hwy @ Livermore St","Cummins Highway"
"25989",,,,"42.494932","-71.101946","Stoneham","Redstone Shopping Center Access Rd",
"45816",,"Waterview Avenue",,"42.396886","-70.985118","Revere","Endicott Ave @ Waterview Ave","Endicott Avenue"
"233",,"Battery Wharf",,"42.366409","-71.051526","Boston","Commercial St @ Battery St","Commercial Street"
"4572",,"Lynnfield Street",,"42.516396","-70.972292","Peabody","First Ave @ Lynnfield St","First Avenue"
"24628",,"Walkhill Road",,"42.198867","-71.198285","Norwood","Washington St @ George St","Washington Street"
"5813",,"Summer Street",,"42.393545","-70.98499","Revere","Crescent Ave @ Summer St","Crescent Avenue"
"1170",,"Martin Luther King Boulevard",,"42.321749","-71.091752","Boston","Washington St @ ML King Blvd","Washington Street"
"2128",,"Poplar Street",,"42.381743","-71.178011","Belmont","Trapelo Rd opp Poplar St","Trapelo Road"
"3603",,"William B Terry Drive",,"42.249172","-70.922316","Hingham","349 Lincoln St","Lincoln Street"
"960",,"Malvern Street",,"42.352354","-71.125623","Boston","Brighton Ave @ Malvern St","Brighton Avenue"
"node-765-bottom",,,"Gilman Square - Bottom of Medford St Elevator 765","42.387695","-71.096277","Somerville","Gilman Square",
"MM-0200",,,"Brockton - Commuter Rail","42.084659","-71.016534","Brockton","Brockton",
"151",,"Dorchester Avenue",,"42.342664","-71.056949","Boston","W Broadway @ Broadway Station","West Broadway"
"70235",,,"Englewood Avenue - Green Line - (C) Cleveland Circle","42.336964","-71.145867","Brookline","Englewood Avenue",
"WML-0199-B0",,,"West Natick - Commuter Rail Outbound Shuttle - W Central St @ West Natick Parking Lot","42.28192","-71.39095","Natick","West Natick - W Central St @ West Natick Parking Lot","West Central Street"
"118",,"Medford Street",,"42.366283","-71.059491","Boston","Causeway St @ Medford St","Causeway Street"
"4882",,"Berkshire Street",,"42.472092","-70.919591","Swampscott","Paradise Rd @ Berkshire St","Paradise Road"
"6496",,"Cummins Highway",,"42.279888","-71.119028","Boston","Hyde Park Ave @ Cummins Hwy","Hyde Park Avenue"
"WR-0085-01",,,"Greenwood - Commuter Rail - Track 1 (Outbound)","42.483005","-71.067247","Wakefield","Greenwood",
"12828",,"Constitution Road",,"42.373833","-71.05831","Boston","Chelsea St opp Constitution Rd","Chelsea Street"
"8603",,"Prospect Hill Road",,"42.435484","-71.237385","Lexington","Marrett Rd @ Prospect Hill Rd","Marrett Road"
"3267",,"Thomas Street",,"42.270171","-70.951887","Quincy","Sea St @ Winthrop St","Sea Street"
"8511",,,,"42.34502","-71.18996","Newton","790 Centre St","Centre Street"
"5364",,"Eastern Avenue",,"42.424179","-71.064342","Malden","Ferry St @ Eastern Ave","Ferry Street"
"2401",,"Central Street",,"42.392616","-71.100619","Somerville","Medford St @ Central St","Medford Street"
"1409",,"Berkshire Street",,"42.372212","-71.089618","Cambridge","Cambridge St @ Berkshire St","Cambridge Street"
"2277",,"Winter Street",,"42.406066","-71.142554","Arlington","Massachusetts Ave opp Lake St","Massachusetts Avenue"
"7384",,"Winnepurkit Avenue",,"42.461919","-70.986685","Lynn","Boston St @ Winnepurkit Ave","Boston Street"
"7413",,"Hancock Road",,"42.431721","-71.024606","Malden","Beach St @ Hancock Rd","Beach Street"
"node-841-lobby",,,"Forest Hills - Top of Commuter Rail elevator","42.300838","-71.113793","Boston","Forest Hills",
"2073",,"Brewer Street",,"42.373956","-71.124752","Cambridge","Mt Auburn St @ Brewer St","Mount Auburn Street"
"node-aport-buswaystairs-lobby",,,"Airport - Bottom of stairs on unpaid Busway side","42.373982","-71.030138","Boston","Airport",
"61391",,"Parker Street",,"42.339219","-71.092168","Boston","Huntington Ave @ Forsyth Way","Huntington Avenue"
"node-bcnfd-stairs-platform",,,"Beaconsfield - Bottom of stairs to Dean Road, Beacon Street","42.336041","-71.141306","Brookline","Beaconsfield",
"23618",,,,"42.201598","-71.197276","Norwood","361 Washington St @ Aldaen Pk","Washington Street"
"8154",,"Bowdoin Street",,"42.321005","-71.210712","Newton","Lincoln St @ Bowdoin St","Lincoln Street"
"6133",,"Essex Avenue",,"42.475653","-70.923803","Swampscott","Essex St @ Cherry St","Essex Street"
"1799",,,,"42.337523","-71.095101","Boston","Ruggles St @ Huntington Ave","Ruggles Street"
"6359",,"West Street",,"42.258812","-71.117831","Boston","River St @ West St","River Street"
"10768",,"Grove Street",,"42.268863","-71.161907","Boston","Centre St @ Grove St","Centre Street"
"place-bckhl","100 South Huntington Ave, Boston, MA 02130",,,"42.330139","-71.111313","Boston","Back of the Hill",
"node-849-platform",,,"Ruggles - Bottom of Commuter Rail (Tracks 1 & 3) platform elevator","42.336466","-71.08939","Boston","Ruggles",
"3353",,"Kimball Street",,"42.254586","-71.033785","Quincy","Robertson St @ Kimball St","Robertson Street"
"1881",,"Church Street",,"42.293151","-71.149288","Boston","Weld St @ Church St","Weld Street"
"61842",,"Chestnut Street",,"42.161876","-71.216043","Walpole","Washington St @ Riverwalk Ln","Washington Street"
"14936",,"Lincoln Place",,"42.521248","-70.926519","Peabody","Washington St @ Lincoln Pl","Washington Street"
"49903",,"Utica Street",,"42.480559","-71.123766","Woburn","42 Central St","Central Street"
"2581",,"Highland Avenue",,"42.39693","-71.122971","Somerville","Holland St @ Dover St","Holland Street"
"5565",,"Gladstone Street",,"42.403864","-71.058383","Everett","Broadway @ Gladstone St","Broadway"
"node-pktrm-tremstairfare-unpaid",,,"Park Street - Unpaid side of fare gates",,,"Boston","Park Street",
"node-balsq-ramp-top",,,"Ball Square - Top of Boston Ave ramp","42.399974","-71.111074","Medford","Ball Square",
"door-qamnl-burgin",,,"Quincy Adams - Burgin Parkway","42.233317","-71.007363","Quincy","Quincy Adams - Burgin Parkway",
"5650",,"Ramp - Arlington St To Rt 1 Southbound",,"42.394716","-71.036276","Chelsea","Arlington St @ Fifth St","Arlington Street"
"node-pktrm-tremontstairs-lobby",,,"Park Street - Bottom of stairs between Government Center & North platform and Tremont Street, Winter Street",,,"Boston","Park Street",
"node-504-lobby",,,"Porter - Bottom of escalator from Somerville Ave to lobby","42.388313","-71.11895","Cambridge","Porter",
"node-cntsq-360-platform",,,"Central - Bottom of Escalator 360 for Massachusetts Ave",,,"Cambridge","Central",
"node-974-wbplatform",,,"State - Bottom of Elevator 974 between Congress St and Bowdoin platform",,,"Boston","State",
"8281",,"Oak Street West",,"42.349606","-71.065439","Boston","285 Tremont St","Tremont Street"
"8681",,"King Street",,"42.293028","-71.057347","Boston","Adams St @ King St","Adams Street"
"7297",,"Allerton Street",,"42.479229","-70.954042","Lynn","Chestnut St @ Allerton St","Chestnut Street"
"2889",,"Columbia Road",,"42.413444","-71.108991","Medford","Mystic Ave @ Columbia Rd","Mystic Avenue"
"570",,"Saint Gregory Street",,"42.275594","-71.067229","Boston","Dorchester Ave @ St Gregory St","Dorchester Avenue"
"70160",,,"Riverside - Green Line - Park Street & North","42.337317","-71.252256","Newton","Riverside",
"NB-0080-B2",,,"West Roxbury - Commuter Rail Outbound Shuttle - Centre St @ Lagrange St","42.280858","-71.158278","Boston","West Roxbury - Centre St @ Lagrange St",
"13404",,,,"42.246347","-71.016357","Quincy","Opp 150 Quarry St","Quarry Street"
"node-880-lobby",,,"Andrew - Top of inbound elevator",,,"Boston","Andrew",
"8323",,"Herrick Street",,"42.564189","-70.879158","Beverly","Sohier Rd @ Beverly High School","Sohier Road"
"1900",,"Pearl Street",,"42.358456","-71.185026","Newton","Centre St @ Pearl St","Centre Street"
"node-north-causewayoakgrove-stairs-bottom",,,"North Station - Bottom of stairs between Causeway Street lobby and Oak Grove platform","42.365668","-71.06043","Boston","North Station",
"9116",,"Hemingway Street",,"42.462961","-71.143731","Winchester","Main St opp Hemmingway St","Main Street"
"node-mlmnl-exitfareunpaid",,,"Malden Center - Unpaid side of exit-only gates","42.426928","-71.074247","Malden","Malden Center",
"node-447-bottom",,,"North Station - Bottom of Escalator 447 from passageway to commuter rail station",,,"Boston","North Station",
"2417",,"Harvard Avenue",,"42.419744","-71.13439","Medford","Boston Ave @ Harvard Ave","Boston Avenue"
"1116",,"Ramp - Western Ave To Soldiers Field Rd Eastbound",,"42.360621","-71.118743","Boston","Cambridge St @ Mass Pike Exit","Cambridge Street"
"33632",,"Cedar Terrace Street",,"42.263827","-71.043104","Milton","Squantum St @ Antwerp St","Squantum Street"
"9240",,"Pitman Avenue",,"42.478572","-71.063088","Wakefield","Main St @ Pitman Ave","Main Street"
"place-newtn","60 Station Ave, Newton, MA 02461",,,"42.322381","-71.205509","Newton","Newton Highlands",
"door-butlr-branchfield",,,"Butler - Branchfield St, Butler St","42.272469","-71.062579","Boston","Butler - Branchfield St, Butler St",
"15100",,"Percival Street",,"42.308101","-71.064371","Boston","St Peters Sq @ Church","Church Street"
"78204",,"Orris Street",,"42.352099","-71.245893","Newton","Lexington St @ Orris St","Lexington Street"
"node-815-fifth",,,"Alewife - Fifth floor of garage level of Elevator 815","42.395815","-71.141239","Cambridge","Alewife",
"5595",,"Washington Avenue",,"42.404788","-71.035371","Chelsea","Sagamore Ave @ Washington Ave","Sagamore Avenue"
"9031",,,,"42.356158","-71.184249","Newton","400 Centre St - East","Centre Street"
"1395",,"Appleton Street",,"42.345156","-71.074969","Boston","Dartmouth St @ Appleton St","Dartmouth Street"
"8685",,"Helena Street",,"42.286961","-71.054597","Boston","Adams St @ Helena Rd","Adams Street"
"door-alfcl-cambridgepark",,,"Alewife - Cambridgepark Dr, Alewife Brook Pkwy","42.394893","-71.141516","Cambridge","Alewife - Cambridgepark Dr, Alewife Brook Pkwy",
"node-bbsta-olwstairs-lobby",,,"Back Bay - Top of Orange Line platform east stairs",,,"Boston","Back Bay",
"2477",,"Village Lane",,"42.40384","-71.160663","Belmont","Lake St @ Albert Ave","Lake Street"
"door-brntn-busway",,,"Braintree - Garage, Buses, Ivory St","42.207352","-71.001361","Braintree","Braintree - Garage, Buses, Ivory St",
"4611",,"South Liberty Street",,"42.544521","-70.919774","Danvers","Water St @ S Liberty St","Water Street"
"node-brntn-splatstairs-lobby",,,"Braintree - Bottom of Red Line platform south stairs","42.207548","-71.001499","Braintree","Braintree",
"554",,"Topliff Street",,"42.301075","-71.06761","Boston","Geneva Ave @ Westville St","Geneva Avenue"
"node-mlmnl-olstairs-lobby",,,"Malden Center - Bottom of Orange Line platform stairs","42.426843","-71.074253","Malden","Malden Center",
"70276",,,"Mattapan - Mattapan Trolley - Ashmont","42.267559","-71.092233","Boston","Mattapan",
"2321",,"Shea Road",,"42.396361","-71.12889","Cambridge","Massachusetts Ave @ Shea Rd","Massachusetts Avenue"
"7359",,"Floyd Avenue",,"42.485788","-70.962277","Lynn","Lynnfield St @ Floyd Ave","Lynnfield Street"
"11187",,"School Street",,"42.314537","-71.099631","Boston","Washington St @ School St","Washington Street"
"place-NB-0076","Corey St and Hastings St, West Roxbury, MA 02132",,,"42.284969","-71.153937","Boston","Highland",
"node-pktrm-ebupassstairs-under",,,"Park Street - Bottom of elevator between Government Center & North side platform and passageway to Copley & West",,,"Boston","Park Street",
"2813",,"Myopia Road",,"42.264047","-71.126829","Boston","West St @ Myopia Rd","West Street"
"2564",,,,"42.36708","-71.124824","Boston","N Harvard St opp Harvard Stadium Gate 2","North Harvard Street"
"node-asmnl-rdexstair-lobby",,,"Ashmont - Top of stairs from Red Line platform to busway","42.284302","-71.063774","Boston","Ashmont",
"9032",,"Emerald Street",,"42.421132","-71.080151","Malden","Highland Ave @ Emerald St","Highland Avenue"
"5295",,"Golden Avenue",,"42.406378","-71.108534","Medford","Main St @ Princeton St","Main Street"
"11972",,"Arthur Street",,"42.356714","-71.14318","Boston","Guest St opp New Balance Way","Guest Street"
"9070237",,,"Cleveland Circle - Green Line Cleveland Circle Shuttle","42.336612","-71.148524","Brookline","Cleveland Circle",
"7825",,"Commonwealth Avenue Service Road",,"42.348058","-71.247735","Newton","Commonwealth Ave @ Lexington St","Commonwealth Avenue"
"1064",,"Putnam Avenue",,"42.364492","-71.114114","Cambridge","Western Ave @ Putnam Ave","Western Avenue"
"node-444-platform",,,"Government Center - Bottom of escalator from Green Line to plaza",,,"Boston","Government Center",
"82135",,"Gould Street",,"42.309393","-71.232792","Needham","Central Ave @ Gould St","Central Avenue"
"10422",,"Canterbury Street",,"42.284762","-71.111695","Boston","Opp 684 American Legion Hwy","American Legion Highway"
"4374",,"Lithgow Street",,"42.289287","-71.071218","Boston","Washington St @ Lithgow St","Washington Street"
"19031",,"Centre Avenue",,"42.355938","-71.185299","Newton","400 Centre St - West","Centre Street"
"3971",,"King Road",,"42.146498","-71.008729","Holbrook","261 S Franklin St","South Franklin Street"
"node-masta-unpramp-lobby",,,"Massachusetts Avenue - Bottom of ramp from main entrance","42.341461","-71.083481","Boston","Massachusetts Avenue",
"2392",,"Chester Avenue",,"42.382591","-71.090089","Somerville","Cross St @ Alston St","Cross Street"
"ER-0208-02",,,"North Beverly - Commuter Rail - Track 2 (Boston)","42.583779","-70.883851","Beverly","North Beverly",
"5309",,,,"42.401845","-71.105855","Medford","Main St @ Medford St","Main Street"
"5993",,"Francis Street",,"42.433861","-71.072009","Malden","Washington St @ Francis St","Washington Street"
"9370024",,,"North Quincy - Red Line Alewife Shuttle - Hancock Street Garage","42.2767","-71.03086","Quincy","North Quincy - Hancock Street Garage","Hancock Street"
"door-rsmnl-wstairs",,,"Reservoir - Chestnut Hill Ave, Buses (Riverside)","42.335157","-71.148775","Brookline","Reservoir - Chestnut Hill Ave, Buses (Riverside)",
"node-wlsta-newprampup-middle",,,"Wollaston - Bottom of ramp between Newport Avenue and ramp to lobby",,,"Quincy","Wollaston",
"2368",,"Monument Street",,"42.421009","-71.138772","Medford","High St @ Monument St","High Street"
"door-cntsq-essex",,,"Central - Essex St","42.364991","-71.102811","Cambridge","Central - Essex St",
"FR-0361",,,"Ayer - Commuter Rail","42.559074","-71.588476","Ayer","Ayer",
"node-143-lobby",,,"Back Bay - Top of Tracks 1-3 up escalator",,,"Boston","Back Bay",
"node-davis-341stair-lobby",,,"Davis - Top of northern stairs for platform",,,"Somerville","Davis",
"769",,"Glenhaven Road",,"42.270185","-71.161904","Boston","Centre St opp Glenhaven Rd","Centre Street"
"17166",,"School Street",,"42.542877","-70.883524","Beverly","Cabot St @ Stone St","Cabot Street"
"3327",,"Summer Street",,"42.245267","-71.000692","Quincy","School St @ Hancock St","School Street"
"5904",,"Brooks Street",,"42.378584","-71.03501","Boston","Lexington St @ Brooks St","Lexington Street"
"966",,"North Beacon Street",,"42.353442","-71.137948","Boston","Cambridge St @ N Beacon St","Cambridge Street"
"node-sstat-ashbrain-fareunpaid",,,"South Station - Unpaid side of exit-only gates",,,"Boston","South Station",
"7647",,"Eddy Street",,"42.350414","-71.215806","Newton","Washington St @ Eddy St","Washington Street"
"9175",,"Exeter Street",,"42.425505","-71.122968","Medford","Winthrop St @ Woodside Rd","Winthrop Street"
"21916",,"Bellingham Road",,"42.304222","-71.150105","Brookline","Grove St @ Bellingham St","Grove Street"
"node-377-lobby",,,"Chinatown - Bottom of escalator from Oak Grove lobby",,,"Boston","Chinatown",
"578",,"Newcroft Circle",,"42.271152","-71.084455","Boston","River St @ Newcroft Circle","River Street"
"6741",,,,"42.468608","-70.990693","Lynn","Kings Hill Dr @ Kingswood Ln","Kings Hill Drive"
"2934",,"Annabel Street",,"42.318702","-71.063102","Boston","Columbia Rd @ Annabel St","Columbia Road"
"3049",,"Merrymount Avenue",,"42.26565","-71.01373","Quincy","Hancock St @ Merrymount Ave","Hancock Street"
"1501",,"Clifton Street",,"42.31871","-71.069253","Boston","Dudley St @ Uphams Corner Station","Dudley Street"
"1530",,"Henry Street",,"42.325425","-71.1219","Brookline","Cypress St opp Henry St","Cypress Street"
"3860",,"River Street",,"42.219842","-71.003752","Braintree","Washington St opp River St","Washington Street"
"9070115",,"Chiswick Road","Chiswick Road - Green Line Boston College Shuttle - Commonwealth Ave @ Chiswick Rd","42.3402","-71.15175","Boston","Chiswick Road - Commonwealth Ave @ Chiswick Rd","Commonwealth Avenue"
"3474",,"Eliot Street",,"42.270539","-71.067889","Milton","Adams St @ Eliot St","Adams Street"
"door-sstat-outmain",,,"South Station - Summer St, Atlantic Ave, Commuter Rail","42.352363","-71.055071","Boston","South Station - Summer St, Atlantic Ave, Commuter Rail",
"4334",,"Westvale Road",,"42.254652","-71.049954","Milton","Edge Hill Rd @ Westvale Rd","Edgehill Road"
"7408",,"Waitt Park",,"42.439246","-71.017489","Revere","Salem St @ Waitt Ct","Salem Street"
"56434",,"Rugby Road",,"42.270847","-71.103265","Boston","Cummins Hwy @ Rugby Rd","Cummins Highway"
"node-spmnl-obrienstairs-top",,,"Science Park/West End - Top of O'Brien entrance stairs","42.36671","-71.067941","Boston","Science Park/West End",
"node-eliot-boylws-bridge",,,"Eliot - Top of stairs to westbound Boylston Street","42.318572","-71.215915","Newton","Eliot",
"25203",,"Gavin Way",,"42.326724","-71.052197","Boston","Old Colony Ave opp Gavin Way","Old Colony Avenue"
"4373",,"Westvale Road",,"42.254584","-71.049864","Milton","Edge Hill Rd opp Westvale Rd","Edgehill Road"
"5748",,"Marginal Street",,"42.388074","-71.038557","Chelsea","Pearl St @ Marginal St","Pearl Street"
"NB-0076-B",,,"Highland - Commuter Rail Shuttle","42.285035","-71.154282","Boston","Highland",
"50618",,"Saint John Avenue",,"42.175705","-71.207087","Norwood","Washington St @ Saint John Ave","Washington Street"
"3194",,"Warren Avenue",,"42.262319","-71.016338","Quincy","Newport Ave @ Warren Ave","Newport Avenue"
"45534",,,,"42.42557","-71.010442","Revere","Charger St @ Squire Rd","Charger Street"
"786",,"Centre Street",,"42.287009","-71.150087","Boston","Belgrade Ave @ Centre St","Belgrade Avenue"
"FR-0064-02",,,"Belmont - Commuter Rail - Track 2 (Boston)","42.395896","-71.17619","Belmont","Belmont",
"node-jaksn-fareunpaid",,,"Jackson Square - Unpaid side of fare gates",,,"Boston","Jackson Square",
"3548",,"Beal Street",,"42.248136","-70.925221","Hingham","Lincoln St @ Lincoln Plaza","Lincoln Street"
"833",,"Capital Street",,"42.285986","-71.170648","Boston","Baker St @ Lasell St","Baker Street"
"1471",,"Draper Street",,"42.306443","-71.066699","Boston","Bowdoin St @ Hamilton St","Bowdoin Street"
"856",,"Albany Street",,"42.333539","-71.073689","Boston","Massachusetts Ave @ Albany St","Massachusetts Avenue"
"33634",,"Amsterdan Avenue",,"42.266631","-71.041687","Milton","Squantum St @ Amsterdam Ave","Squantum Street"
"12836",,"Warren Street",,"42.372149","-71.060233","Boston","Chelsea St @ Warren St","Chelsea Street"
"49846",,,,"42.50372","-71.239692","Bedford","MITRE Corp Inner Rd",
"1577",,"Mount Pleasant Avenue",,"42.32505","-71.075288","Boston","Blue Hill Ave @ Mt Pleasant Ave","Blue Hill Avenue"
"4922",,"Brown Street",,"42.512726","-70.946838","Peabody","Lynn St @ Rainbow Rd","Lynn Street"
"node-rbmnl-fareunpaid",,,"Revere Beach - Unpaid side of fare gates","42.407872","-70.992533","Revere","Revere Beach",
"1442",,"Arlington Street",,"42.362251","-71.153017","Watertown","Arsenal St @ Forge Rd","Arsenal Street"
"7318",,"Clough Street",,"42.476233","-70.947217","Lynn","Chestnut St @ Clough St","Chestnut Street"
"5062",,"Pine Street",,"42.431979","-71.081953","Malden","Highland Ave @ Pine St","Highland Avenue"
"6365",,"Mattakeeset Street",,"42.264875","-71.099481","Boston","River St @ Mattakeeset St","River Street"
"5463",,"Hyde Street",,"42.431331","-71.05245","Malden","Salem St @ Dell St","Salem Street"
"door-bcnfd-clark",,,"Beaconsfield - Clark Rd","42.335555","-71.13997","Brookline","Beaconsfield - Clark Rd",
"3050",,"Bass Street",,"42.267041","-71.01491","Quincy","Hancock St @ Bass St","Hancock Street"
"node-smmnl-nbstairs-platform",,,"Shawmut - Bottom of Alewife stairs","42.293242","-71.065729","Boston","Shawmut",
"node-brntn-crstairs-bottom",,,"Braintree - Bottom of Commuter Rail platform stairs","42.207631","-71.001345","Braintree","Braintree",
"933",,"Babcock Street",,"42.351568","-71.121168","Boston","Commonwealth Ave @ Babcock St","Commonwealth Avenue"
"331",,"Shepton Street",,"42.289422","-71.063344","Boston","Dorchester Ave opp Shepton St","Dorchester Avenue"
"76121",,,"Harvard - Upper Busway Berth B1","42.374145","-71.119","Cambridge","Harvard","Harvard Busway"
"place-WML-0214","417 Waverly St, Framingham, MA 01702",,,"42.276108","-71.420055","Framingham","Framingham",
"8556",,"Dedham Street",,"42.29468","-71.178978","Newton","Spiers Rd @ Dedham St","Spiers Road"
"15969",,,,"42.441868","-71.07189","Melrose","Washington St opp Brazil St","Washington Street"
"843",,"Dent Street",,"42.281377","-71.159686","Boston","Lagrange St @ Dent St","La Grange Street"
"node-portr-farepaid",,,"Porter - Paid side of fare gates","42.388397","-71.11885","Cambridge","Porter",
"node-masta-fareunpaid",,,"Massachusetts Avenue - Unpaid side of fare gates","42.341426","-71.083572","Boston","Massachusetts Avenue",
"node-pktrm-ebparkstairs-lobby",,,"Park Street - Bottom of stairs between Boston Common and Government Center & North platform",,,"Boston","Park Street",
"7790",,"Indian Road",,"42.403135","-71.238293","Waltham","Lake St @ Indian Rd","Lake Street"
"node-bbsta-upassestairs-top",,,"Back Bay - Top of eastern underpass stairs",,,"Boston","Back Bay",
"door-lech-first",,,"Lechmere - North First St","42.371572","-71.076584","Cambridge","Lechmere - North First St",
"node-813-bottom",,,"Alewife - Bottom of Elevator 813 between concourse and Red Line platform","42.396122","-71.141487","Cambridge","Alewife",
"3157",,"Hummock Road",,"42.287287","-71.023669","Quincy","E Squantum St opp Hummock Rd","East Squantum Street"
"4309",,"Heather Drive",,"42.23569","-71.069588","Milton","Randolph Ave @ Ridgewood Rd","Randolph Avenue"
"1041",,"Centola Street",,"42.359279","-71.147082","Boston","Market St @ Centola St","Birmingham Parkway"
"9128",,"Manning Street",,"42.485904","-71.151862","Woburn","Main St @ Manning St","Main Street"
"15989",,,,"42.494975","-71.103846","Stoneham","Redstone Shopping Center",
"62",,"Eustis Street",,"42.332045","-71.081738","Boston","Washington St @ Williams St","Washington Street"
"817",,"Gould Street",,"42.272991","-71.170956","Boston","Spring St @ VA Hospital","Spring Street"
"5411",,"Floyd Street",,"42.413498","-71.063482","Everett","Main St @ Bradford St","Main Street"
"node-972-unpaidlobby",,,"Kenmore - Unpaid lobby level for busway elevator","42.348888","-71.095356","Boston","Kenmore",
"2829",,,,"42.365749","-71.058505","Boston","N Washington St @ Medford St","North Washington Street"
"905",,"Hibbard Road",,"42.354693","-71.181072","Newton","Tremont St opp Hibbard Rd","Tremont Street"
"node-aqucl-atlanticstairs-lobby",,,"Aquarium - Bottom of stairs for Atlantic Avenue",,,"Boston","Aquarium",
"3121",,"Harriet Avenue",,"42.270172","-71.033544","Quincy","W Squantum St opp Harriet Ave","West Squantum Street"
"109901",,"Beach Road",,"42.380764","-70.974996","Winthrop","Shirley St @ Beach Rd","Shirley Street"
"place-astao","499 Foley St, Somerville, MA 02145",,,"42.392811","-71.077257","Somerville","Assembly",
"1322",,"Sewall Street",,"42.331819","-71.097819","Boston","Tremont St @ Sewall St","Tremont Street"
"8275",,"Garden Street",,"42.418188","-71.151205","Arlington","Mystic St @ Russell St","Mystic Street"
"node-869-platform",,,"Downtown Crossing - Bottom of elevator between Alewife platform and Chauncy Street lobby",,,"Boston","Downtown Crossing",
"8213",,"Linden Street",,"42.309507","-71.220609","Newton","Oak St @ Chestnut St","Oak Street"
"1175",,"Saint James Street",,"42.32743","-71.087075","Boston","Washington St @ St James St","Washington Street"
"node-knncl-nbmain-farepaid",,,"Kendall/MIT - Paid side of fare gates","42.362507","-71.086214","Cambridge","Kendall/MIT",
"4071",,"McDevitt Road",,"42.178165","-71.030786","Randolph","North St @ Teed Dr","North Street"
"1581",,"Clifford Street",,"42.319151","-71.077823","Boston","Blue Hill Ave @ Clifford St","Blue Hill Avenue"
"4368",,"Gerald Road",,"42.250775","-71.060399","Milton","Pleasant St @ Nancy Rd","Pleasant Street"
"9058",,"Pleasant Street",,"42.426463","-71.08099","Malden","Highland Ave @ Pleasant St","Highland Avenue"
"2285",,"Bartlett Avenue",,"42.416736","-71.159705","Arlington","Massachusetts Ave @ Willow Ct","Massachusetts Avenue"
"5401",,"Forest Avenue",,"42.407618","-71.062197","Everett","202 Main St","Main Street"
"9070055",,"Winthrop Avenue","Beachmont - Blue Line Southbound Shuttle - State Rd @ Winthrop Ave","42.397706","-70.992052","Revere","Beachmont - State Rd @ Winthrop Ave","State Road"
"4379",,"Eddie Street",,"42.255876","-71.032456","Quincy","Adams St @ Robertson St","Adams Street"
"5555",,"Reed Avenue",,"42.410905","-71.045747","Everett","Ferry St @ Reed Ave","Ferry Street"
"1525",,"Pearl Street",,"42.332805","-71.113834","Brookline","Brookline Ave @ Pearl St","Brookline Avenue"
"18338",,,,"42.437412","-71.030439","Malden","Kennedy Dr @ Bldg 142","Kennedy Drive"
"66854",,"Chase Road",,"42.48409","-70.946878","Lynn","Euclid Ave @ Chase St","Euclid Avenue"
"2057",,"School Street",,"42.370622","-71.164816","Watertown","Mt Auburn St @ School St","Mount Auburn Street"
"111251",,"Water Street",,"42.245686","-70.882913","Hingham","Summer St from Cushing Way to Water St (FLAG)","Summer Street"
"5303",,"Edgar Avenue",,"42.395076","-71.097724","Somerville","Main St @ Broadway","Main Street"
"1083",,"Arlington Street",,"42.35151","-71.152061","Boston","Market St @ Arlington St","Market Street"
"7806",,"Bridge Street",,"42.365201","-71.204297","Newton","California St @ Bridge St","California Street"
"door-jaksn-main",,,"Jackson Square - Centre St, Busway, Park","42.323014","-71.099879","Boston","Jackson Square - Centre St, Busway, Park",
"node-342-lobby",,,"Davis - Bottom of Escalator 342",,,"Somerville","Davis",
"door-shmnl-sydney",,,"Savin Hill - South Sydney St","42.310856","-71.053701","Boston","Savin Hill - South Sydney St",
"door-gilmn-school",,,"Gilman Square - School St","42.388307","-71.097622","Somerville","Gilman Square - School St",
"node-104-lobby",,,"Oak Grove - Top of escalator from busway, parking","42.436916","-71.070639","Malden","Oak Grove",
"2589",,"Lowell Street",,"42.384604","-71.112011","Somerville","Somerville Ave @ Sacramento St","Somerville Avenue"
"2442",,"Harvard Street",,"42.36839","-71.101745","Cambridge","Prospect St @ Harvard St","Prospect Street"
"50021",,"Riverside Avenue",,"42.416479","-71.106177","Medford","Clippership Dr @ Riverside Towers","Clippership Drive"
"9292",,"Main Street",,"42.522611","-71.077498","Wakefield","Lowell St @ Main St","Lowell Street"
"7319",,"Western Avenue",,"42.47729","-70.949069","Lynn","Chestnut St @ Western Ave","Chestnut Street"
"9448",,"Blue Hill Avenue",,"42.305629","-71.085316","Boston","Seaver St @ Blue Hill Ave","Seaver Street"
"67618",,"Montague Road",,"42.238726","-71.180957","Dedham","Washington St @ Montague Rd","Washington Street"
"node-symcl-sympstair-platform",,,"Symphony - Bottom of stairs for Massachusetts Ave, Symphony Hall",,,"Boston","Symphony",
"2141",,"Orchard Street",,"42.393108","-71.166628","Belmont","Concord Ave @ Orchard St","Concord Avenue"
"1382",,,,"42.341882","-71.072691","Boston","43 W Dedham St","West Dedham Street"
"4098",,"Lyons Street",,"42.241367","-71.023124","Quincy","West St @ Hynes Ave","West Street"
"2021",,"Ash Street",,"42.374356","-71.12563","Cambridge","Mt Auburn St @ Ash St","Mount Auburn Street"
"node-qamnl-southstairs-top",,,"Quincy Adams - Top of south stairs between lobby and platform","42.233064","-71.006964","Quincy","Quincy Adams",
"place-qamnl","Burgin Pkwy and Centre St, Quincy, MA 02169",,,"42.233391","-71.007153","Quincy","Quincy Adams",
"2225",,"Highland Avenue",,"42.371712","-71.106979","Cambridge","Broadway @ Highland Ave","Broadway"
"3253",,"Peterson Road",,"42.266378","-70.967941","Quincy","Sea St @ Babcock St","Sea Street"
"node-sull-nbstairs-platform",,,"Sullivan Square - Bottom of stairs for Oak Grove",,,"Boston","Sullivan Square",
"954",,"Carlton Street",,"42.350453","-71.108831","Boston","Commonwealth Ave @ University Rd","Commonwealth Avenue"
"node-newtn-hyde-stairs",,,"Newton Highlands - Bottom of stairs for Hyde Street","42.323408","-71.204458","Newton","Newton Highlands",
"12644",,"Franklin Street",,"42.413862","-71.149008","Arlington","Broadway @ Franklin St","Broadway"
"90311",,"Melvinside Terrace",,"42.311856","-71.05752","Boston","Dorchester Ave @ Melvinside Ter","Dorchester Avenue"
"15857",,"Orleans Street",,"42.368109","-71.038158","Boston","Sumner St @ Orleans St","Sumner Street"
"301",,"Mt Vernon St",,"42.321778","-71.056894","Boston","Dorchester Ave @ Mt Vernon St","Dorchester Ave"
"door-forhl-arborway",,,"Forest Hills - Arborway, Arnold Arboretum, South St, Washington St (Jamaica Plain)","42.300934","-71.11382","Boston","Forest Hills - Arborway, Arnold Arboretum, South St, Washington St (Jamaica Plain)",
"8432",,"Charles Street",,"42.426012","-71.196019","Lexington","Massachusetts Ave opp Charles St","Massachusetts Avenue"
"35704",,"Stowers Street",,"42.416554","-71.002017","Revere","Revere St @ Stowers St","Revere Street"
"6430",,"Sycamore Street",,"42.284332","-71.125039","Boston","Cummins Hwy @ Sycamore St","Cummins Highway"
"4934",,"Water Street",,"42.531735","-70.927431","Peabody","86 Central St","Central Street"
"node-grnst-farepaid",,,"Green Street - Paid side of fare gates","42.310462","-71.107597","Boston","Green Street",
"4759",,"Berkshire Street",,"42.471976","-70.91942","Swampscott","Paradise Rd @ Shaw Rd","Paradise Road"
"4290",,,,"42.183273","-71.053376","Randolph","N Main St @ Francis Dr","North Main Street"
"node-807-second",,,"Quincy Adams - Second floor of garage level of Elevator 807","42.233095","-71.007194","Quincy","Quincy Adams",
"node-bmmnl-378stair-lobby",,,"Beachmont - Bottom of stairs for Bowdoin","42.397377","-70.992599","Revere","Beachmont",
"1327",,"Homestead Street",,"42.311816","-71.090489","Boston","Humboldt Ave @ Homestead St","Humboldt Avenue"
"place-GB-0254","40 Beach St, Manchester, MA 01944",,,"42.573687","-70.77009","Manchester-by-the-Sea","Manchester",
"node-welln-busstair-lobby",,,"Wellington - Top of stairs for busway, parking","42.402444","-71.076618","Medford","Wellington",
"node-jfk-brasydstair-lobby",,,"JFK/UMass - Top of stairs between Braintree, Alewife platform and Sydney Street","42.319968","-71.052189","Boston","JFK/UMass",
"9070231",,,"Tappan Street - Green Line Cleveland Circle Shuttle","42.338794","-71.138504","Brookline","Tappan Street",
"node-445-platform",,,"Government Center - Bottom of escalator from Green Line to plaza",,,"Boston","Government Center",
"3535",,"Birchbrow Avenue",,"42.242602","-70.955925","Weymouth","Bridge St opp Birchbrow Ave","Bridge Street"
"10009",,,,"42.214986","-70.915924","Hingham","High St @ Duck Lane","High Street"
"3972",,"King Road",,"42.145817","-71.00876","Holbrook","S Franklin St @ King Rd","South Franklin Street"
"place-fenwd","Huntington Ave and Fenwood Rd, Boston, MA",,,"42.333706","-71.105728","Boston","Fenwood Road",
"6479",,"Destefano Road",,"42.282975","-71.118823","Boston","512 Hyde Park Ave","Hyde Park Avenue"
"node-alfcl-buswayramp-top",,,"Alewife - Top of ramp between concourse and busway","42.395521","-71.141482","Cambridge","Alewife",
"6155",,"Ryan Place",,"42.482967","-70.911291","Swampscott","Essex St @ Ryan Pl","Essex Street"
"81317",,,,"42.34016","-71.088899","Boston","360 Huntington Ave","Huntington Avenue"
"node-322-platform",,,"JFK/UMass - Bottom of escalator from platform to Columbia Road","42.321174","-71.052552","Boston","JFK/UMass",
"1760",,,,"42.327905","-71.109123","Boston","Heath St opp VA Hospital","Heath Street"
"5891",,"Orient Avenue",,"42.392176","-71.010055","Boston","219 Faywood Ave","Faywood Avenue"
"7469",,"Kenwood Avenue",,"42.459427","-71.00303","Saugus","Winter St opp Kenwood Ave","Winter Street"
"WR-0163-B1",,,"North Wilmington - Commuter Rail Boston Shuttle - Opp 279 Middlesex Ave","42.569402","-71.159299","Wilmington","North Wilmington - Opp 279 Middlesex Ave","Middlesex Avenue"
"71186",,,"JFK/UMass - Red Line Alewife Shuttle - Columbia Rd @ I-93","42.321348","-71.053228","Boston","JFK/UMass - Columbia Rd @ I-93","Columbia Road"
"2671",,"Cedar Street",,"42.39232","-71.112537","Somerville","Highland Ave @ Cedar St","Highland Avenue"
"2160",,"Buckingham Street",,"42.381137","-71.128988","Cambridge","Concord Ave @ Buckingham St","Concord Avenue"
"3555",,"Downer Avenue",,"42.249237","-70.903257","Hingham","Lincoln St @ Thaxter St","Lincoln Street"
"3930",,"Gilbert L Bean Drive",,"42.205836","-71.004448","Braintree","Washington St @ Gilbert Bean Dr","Washington Street"
"4012",,"Marshfield Road",,"42.206083","-71.010762","Braintree","Franklin St @ Marshfield Rd","Franklin Street"
"node-mvbcl-msqfareunpaid",,,"Maverick - Unpaid side of Maverick Square fare gates",,,"Boston","Maverick",
"door-north-valentiexite",,,"North Station - Valenti Way","42.365125","-71.059868","Boston","North Station - Valenti Way",
"33635",,"London Avenue",,"42.268555","-71.040388","Quincy","W Squantum St @ London Ave","West Squantum Street"
"23835",,"Rockway Avenue",,"42.190727","-70.951226","Weymouth","Middle St @ Rockaway Ave","Middle Street"
"9106",,"Marshall Road",,"42.443201","-71.134855","Winchester","Main St @ Marshall Rd","Main Street"
"node-ogcityhallstairs-lobby",,,"State - Top of stairs between Oak Grove platform and City Hall",,,"Boston","State",
"31365",,,,"42.326625","-71.111437","Boston","S Huntington Ave opp VA Hospital","South Huntington Avenue"
"node-prmnl-wbstair-lobby",,,"Prudential - Top of Heath Street stairs",,,"Boston","Prudential",
"FRS-0109-S",,,"Fall River Depot - Commuter Rail - Track 1 (All Trains)","41.713982","-71.154182","Fall River","Fall River Depot",
"1362",,"Wigglesworth Street",,"42.333906","-71.103897","Boston","Tremont St @ Huntington Ave","Tremont Street"
"node-state-congressstairs-wbplatform",,,"State - Bottom of stairs between Congress St and Bowdoin platform",,,"Boston","State",
"4823",,"Orchard Road",,"42.472694","-70.894577","Swampscott","Humphrey St opp Orchard Rd","Humphrey Street"
"node-958-lobby",,,"Fields Corner - Bottom of elevator for Ashmont platform","42.299982","-71.061671","Boston","Fields Corner",
"2161",,"Parker Street",,"42.380287","-71.12742","Cambridge","Concord Ave @ Parker St","Concord Avenue"
"4881",,"Andrew Road",,"42.472749","-70.918652","Swampscott","Paradise Rd opp Andrew Rd","Paradise Road"
"4761",,,,"42.423921","-70.984702","Revere","Jack Satter House @ Revere Beach Blvd","Oak Island Street"
"8309",,"Hanover Street",,"42.362243","-71.056806","Boston","Surface Rd @ Hanover St","John F. Fitzgerald Surface Road"
"45581",,"Genesee Street",,"42.412554","-71.022036","Revere","Park Ave @ S Genesee St","Park Avenue"
"3300",,"Roach Street",,"42.256391","-70.969807","Quincy","Palmer St opp Roach St","Palmer Street"
"2090",,"Vassal Lane",,"42.381563","-71.134242","Cambridge","Huron Ave @ Appleton St","Huron Avenue"
"8253",,,,"42.461166","-71.168312","Woburn","Cambridge Rd @ Crescent Park Dr","Cambridge Street"
"613",,"Weymouth Avenue",,"42.266298","-71.151819","Boston","Washington St @ Weymouth Ave","Washington Street"
"9251",,"Water Street",,"42.502471","-71.069633","Wakefield","Main St @ Water St","Main Street"
"36701",,"James Road",,"42.225879","-70.94096","Weymouth","Commercial St @ King Oak Terr","Commercial Street"
"door-capst-ashmont",,,"Capen Street - Capen St (East)","42.267529","-71.087266","Milton","Capen Street - Capen St (East)",
"353",,"Romsey Street",,"42.316434","-71.056601","Boston","Dorchester Ave @ Romsey St","Dorchester Avenue"
"11781",,"Fenway",,"42.340095","-71.101014","Boston","Ave Louis Pasteur @ The Fenway","Avenue Louis Pasteur"
"4821",,"Shelton Road",,"42.468747","-70.898388","Swampscott","Humphrey St @ Shelton Rd","Humphrey Street"
"70162",,,"Woodland - Green Line - Park Street & North","42.332703","-71.243055","Newton","Woodland",
"5428",,"Cross Street",,"42.42755","-71.054703","Malden","Lyme St @ Cross St","Lyme Street"
"place-MBS-0350","52 West Grove Street, Middleborough MA 02346",,,"41.887","-70.923209","Middleborough","Middleborough",
"7485",,,,"42.470848","-71.032522","Saugus","291 Main St","Main Street"
"4873",,,,"42.482245","-70.902066","Swampscott","500 Paradise Rd","Paradise Road"
"8331",,"West Milton Street",,"42.238283","-71.13563","Boston","Readville St @ W Milton St","Readville Street"
"8503",,"Braeland Avenue",,"42.328146","-71.194359","Newton","Cypress St @ Braeland Ave","Cypress Street"
"node-889-unpaidbridge",,,"Wood Island - Top of Elevator 889 (outside fare control)","42.379769","-71.022991","Boston","Wood Island",
"3485",,"Centre Street",,"42.260235","-71.050876","Milton","Adams St @ Centre St","Adams Street"
"15986",,"Maple Street",,"42.47828","-71.100179","Stoneham","Main St opp Maple St","Main Street"
"place-boyls","Boylston St and Tremont St, Boston, MA",,,"42.35302","-71.06459","Boston","Boylston",
"1112",,"Highgate Street",,"42.355641","-71.132361","Boston","Cambridge St @ Harvard Ave","Cambridge Street"
